지점번호,도,시,지번주소,권역,법정동,세부주소,위도,경도,일반쓰레기배출규칙,음식물쓰레기배출규칙,재활용품배출규칙,일반쓰레기수거일,음식물쓰레기수거일,재활용품수거일,일반쓰레기수거시작시간,일반쓰레기수거종료시간,음식물쓰레기수거시작시간,음식물쓰레기수거종료시간,재활용품수거시작시간,재활용품수거종료시간,미수거일,데이터수집일자,데이터기준일
4211010000000 ,강원도,춘천시,중앙로1가 27,2권역,중앙로1가,한국후지제록스,37.88355525,127.72965500,"쓰레기봉투를 사용하여 지정된 날짜, 시간에 수거위치에 배출","음식물 쓰레기봉투를 사용하여 지정된 날짜, 시간에 수거위치에 배출",재활용품별로 모아서 지정된 장소와 시간에 배출,일+월+화+수+목+금,일+월+화+수+목+금,일+월+화+수+목+금,18:00,23:00,18:00,23:00,18:00,23:00,토,2022-08-18,2022-12-15
4211010000000 ,강원도,춘천시,중앙로1가 2-4,2권역,중앙로1가,도청2청사 뒷편,37.88425011,127.73005030,"쓰레기봉투를 사용하여 지정된 날짜, 시간에 수거위치에 배출","음식물 쓰레기봉투를 사용하여 지정된 날짜, 시간에 수거위치에 배출",재활용품별로 모아서 지정된 장소와 시간에 배출,일+월+화+수+목+금,일+월+화+수+목+금,일+월+화+수+목+금,18:00,23:00,18:00,23:00,18:00,23:00,토,2022-10-20,2022-12-15
4211010000000 ,강원도,춘천시,중앙로2가 116,1권역,중앙로2가,국민은행 앞,37.87937967,127.72656570,"쓰레기봉투를 사용하여 지정된 날짜, 시간에 수거위치에 배출","음식물 쓰레기봉투를 사용하여 지정된 날짜, 시간에 수거위치에 배출",재활용품별로 모아서 지정된 장소와 시간에 배출,일+월+화+수+목+금,일+월+화+수+목+금,일+월+화+수+목+금,18:00,23:00,18:00,23:00,18:00,23:00,토,2022-08-23,2022-12-15
4211010000000 ,강원도,춘천시,중앙로2가 116,1권역,중앙로2가,모범약국앞,37.88015353,127.72798880,"쓰레기봉투를 사용하여 지정된 날짜, 시간에 수거위치에 배출","음식물 쓰레기봉투를 사용하여 지정된 날짜, 시간에 수거위치에 배출",재활용품별로 모아서 지정된 장소와 시간에 배출,일+월+화+수+목+금,일+월+화+수+목+금,일+월+화+수+목+금,18:00,23:00,18:00,23:00,18:00,23:00,토,2022-08-23,2022-12-15
4211010000000 ,강원도,춘천시,중앙로2가 116,1권역,중앙로2가,우성재활의학과,37.87832355,127.72500170,"쓰레기봉투를 사용하여 지정된 날짜, 시간에 수거위치에 배출","음식물 쓰레기봉투를 사용하여 지정된 날짜, 시간에 수거위치에 배출",재활용품별로 모아서 지정된 장소와 시간에 배출,일+월+화+수+목+금,일+월+화+수+목+금,일+월+화+수+목+금,18:00,23:00,18:00,23:00,18:00,23:00,토,2022-10-20,2022-12-15
4211010000000 ,강원도,춘천시,중앙로3가 61,1권역,중앙로3가,교육문화관 앞,37.87637781,127.72364760,"쓰레기봉투를 사용하여 지정된 날짜, 시간에 수거위치에 배출","음식물 쓰레기봉투를 사용하여 지정된 날짜, 시간에 수거위치에 배출",재활용품별로 모아서 지정된 장소와 시간에 배출,일+월+화+수+목+금,일+월+화+수+목+금,일+월+화+수+목+금,18:00,23:00,18:00,23:00,18:00,23:00,토,2022-08-17,2022-12-15
4211010000000 ,강원도,춘천시,중앙로3가 71,1권역,중앙로3가,하나로마트 옆,37.87665002,127.72403580,"쓰레기봉투를 사용하여 지정된 날짜, 시간에 수거위치에 배출","음식물 쓰레기봉투를 사용하여 지정된 날짜, 시간에 수거위치에 배출",재활용품별로 모아서 지정된 장소와 시간에 배출,일+월+화+수+목+금,일+월+화+수+목+금,일+월+화+수+목+금,18:00,23:00,18:00,23:00,18:00,23:00,토,2022-08-23,2022-12-15
4211010000000 ,강원도,춘천시,중앙로3가 71,1권역,중앙로3가,하나로미니,37.87661489,127.72405850,"쓰레기봉투를 사용하여 지정된 날짜, 시간에 수거위치에 배출","음식물 쓰레기봉투를 사용하여 지정된 날짜, 시간에 수거위치에 배출",재활용품별로 모아서 지정된 장소와 시간에 배출,일+월+화+수+목+금,일+월+화+수+목+금,일+월+화+수+목+금,18:00,23:00,18:00,23:00,18:00,23:00,토,2022-10-20,2022-12-15
4211010000000 ,강원도,춘천시,옥천동 14-1,2권역,옥천동,53-2 주택 앞,37.88405013,127.73217540,"쓰레기봉투를 사용하여 지정된 날짜, 시간에 수거위치에 배출","음식물 쓰레기봉투를 사용하여 지정된 날짜, 시간에 수거위치에 배출",재활용품별로 모아서 지정된 장소와 시간에 배출,일+월+화+수+목+금,일+월+화+수+목+금,일+월+화+수+목+금,18:00,23:00,18:00,23:00,18:00,23:00,토,2022-08-18,2022-12-15
4211010000000 ,강원도,춘천시,옥천동 14-45,2권역,옥천동,아워테이스트 뒤 편,37.88322372,127.73284870,"쓰레기봉투를 사용하여 지정된 날짜, 시간에 수거위치에 배출","음식물 쓰레기봉투를 사용하여 지정된 날짜, 시간에 수거위치에 배출",재활용품별로 모아서 지정된 장소와 시간에 배출,일+월+화+수+목+금,일+월+화+수+목+금,일+월+화+수+목+금,18:00,23:00,18:00,23:00,18:00,23:00,토,2022-08-18,2022-12-15
4211010000000 ,강원도,춘천시,옥천동 14-150,2권역,옥천동,한끼샐러드 앞,37.88218115,127.73220270,"쓰레기봉투를 사용하여 지정된 날짜, 시간에 수거위치에 배출","음식물 쓰레기봉투를 사용하여 지정된 날짜, 시간에 수거위치에 배출",재활용품별로 모아서 지정된 장소와 시간에 배출,일+월+화+수+목+금,일+월+화+수+목+금,일+월+화+수+목+금,18:00,23:00,18:00,23:00,18:00,23:00,토,2022-08-18,2022-12-15
4211010000000 ,강원도,춘천시,조양동 6-10,2권역,조양동,조운동 행정복지센터,37.87926477,127.73047580,"쓰레기봉투를 사용하여 지정된 날짜, 시간에 수거위치에 배출","음식물 쓰레기봉투를 사용하여 지정된 날짜, 시간에 수거위치에 배출",재활용품별로 모아서 지정된 장소와 시간에 배출,일+월+화+수+목+금,일+월+화+수+목+금,일+월+화+수+목+금,18:00,23:00,18:00,23:00,18:00,23:00,토,2022-08-19,2022-12-15
4211010000000 ,강원도,춘천시,조양동 6-32,2권역,조양동,중앙일보,37.87969832,127.73092810,"쓰레기봉투를 사용하여 지정된 날짜, 시간에 수거위치에 배출","음식물 쓰레기봉투를 사용하여 지정된 날짜, 시간에 수거위치에 배출",재활용품별로 모아서 지정된 장소와 시간에 배출,일+월+화+수+목+금,일+월+화+수+목+금,일+월+화+수+목+금,18:00,23:00,18:00,23:00,18:00,23:00,토,2022-08-19,2022-12-15
4211010000000 ,강원도,춘천시,조양동 6-22,2권역,조양동,주택가,37.88001744,127.73146240,"쓰레기봉투를 사용하여 지정된 날짜, 시간에 수거위치에 배출","음식물 쓰레기봉투를 사용하여 지정된 날짜, 시간에 수거위치에 배출",재활용품별로 모아서 지정된 장소와 시간에 배출,일+월+화+수+목+금,일+월+화+수+목+금,일+월+화+수+목+금,18:00,23:00,18:00,23:00,18:00,23:00,토,2022-08-19,2022-12-15
4211010000000 ,강원도,춘천시,조양동 52,1권역,조양동,뉴발란스 앞,37.87937602,127.72729400,"쓰레기봉투를 사용하여 지정된 날짜, 시간에 수거위치에 배출","음식물 쓰레기봉투를 사용하여 지정된 날짜, 시간에 수거위치에 배출",재활용품별로 모아서 지정된 장소와 시간에 배출,일+월+화+수+목+금,일+월+화+수+목+금,일+월+화+수+목+금,18:00,23:00,18:00,23:00,18:00,23:00,토,2022-08-23,2022-12-15
4211010000000 ,강원도,춘천시,조양동 37-21,1권역,조양동,휴대폰인터넷전문매장 앞,37.87922771,127.72909740,"쓰레기봉투를 사용하여 지정된 날짜, 시간에 수거위치에 배출","음식물 쓰레기봉투를 사용하여 지정된 날짜, 시간에 수거위치에 배출",재활용품별로 모아서 지정된 장소와 시간에 배출,일+월+화+수+목+금,일+월+화+수+목+금,일+월+화+수+목+금,18:00,23:00,18:00,23:00,18:00,23:00,토,2022-09-30,2022-12-15
4211010000000 ,강원도,춘천시,조양동 52,1권역,조양동,언더아머 앞,37.87909172,127.72887300,"쓰레기봉투를 사용하여 지정된 날짜, 시간에 수거위치에 배출","음식물 쓰레기봉투를 사용하여 지정된 날짜, 시간에 수거위치에 배출",재활용품별로 모아서 지정된 장소와 시간에 배출,일+월+화+수+목+금,일+월+화+수+목+금,일+월+화+수+목+금,18:00,23:00,18:00,23:00,18:00,23:00,토,2022-09-30,2022-12-15
4211010000000 ,강원도,춘천시,운교동 203,2권역,운교동,축산물할인판매점앞,37.87765132,127.73557010,"쓰레기봉투를 사용하여 지정된 날짜, 시간에 수거위치에 배출","음식물 쓰레기봉투를 사용하여 지정된 날짜, 시간에 수거위치에 배출",재활용품별로 모아서 지정된 장소와 시간에 배출,일+월+화+수+목+금,일+월+화+수+목+금,일+월+화+수+목+금,18:00,23:00,18:00,23:00,18:00,23:00,토,2022-08-19,2022-12-15
4211010000000 ,강원도,춘천시,조양동 52,1권역,조양동,우미닭갈비,37.87944541,127.72793170,"쓰레기봉투를 사용하여 지정된 날짜, 시간에 수거위치에 배출","음식물 쓰레기봉투를 사용하여 지정된 날짜, 시간에 수거위치에 배출",재활용품별로 모아서 지정된 장소와 시간에 배출,일+월+화+수+목+금,일+월+화+수+목+금,일+월+화+수+목+금,18:00,23:00,18:00,23:00,18:00,23:00,토,2022-10-20,2022-12-15
4211010000000 ,강원도,춘천시,조양동 136-5,1권역,조양동,츄러스아저씨,37.87859340,127.72780610,"쓰레기봉투를 사용하여 지정된 날짜, 시간에 수거위치에 배출","음식물 쓰레기봉투를 사용하여 지정된 날짜, 시간에 수거위치에 배출",재활용품별로 모아서 지정된 장소와 시간에 배출,일+월+화+수+목+금,일+월+화+수+목+금,일+월+화+수+목+금,18:00,23:00,18:00,23:00,18:00,23:00,토,2022-10-20,2022-12-15
4211010000000 ,강원도,춘천시,죽림동 13,1권역,죽림동,제일종합시장 앞,37.87706827,127.72579210,"쓰레기봉투를 사용하여 지정된 날짜, 시간에 수거위치에 배출","음식물 쓰레기봉투를 사용하여 지정된 날짜, 시간에 수거위치에 배출",재활용품별로 모아서 지정된 장소와 시간에 배출,일+월+화+수+목+금,일+월+화+수+목+금,일+월+화+수+목+금,18:00,23:00,18:00,23:00,18:00,23:00,토,2022-08-23,2022-12-15
4211010000000 ,강원도,춘천시,죽림동 19-2,1권역,죽림동,어반어라운드 옆,37.87771506,127.72733620,"쓰레기봉투를 사용하여 지정된 날짜, 시간에 수거위치에 배출","음식물 쓰레기봉투를 사용하여 지정된 날짜, 시간에 수거위치에 배출",재활용품별로 모아서 지정된 장소와 시간에 배출,일+월+화+수+목+금,일+월+화+수+목+금,일+월+화+수+목+금,18:00,23:00,18:00,23:00,18:00,23:00,토,2022-08-23,2022-12-15
4211010000000 ,강원도,춘천시,운교동 196,1권역,운교동,고려인테리어,37.87560384,127.73066550,"쓰레기봉투를 사용하여 지정된 날짜, 시간에 수거위치에 배출","음식물 쓰레기봉투를 사용하여 지정된 날짜, 시간에 수거위치에 배출",재활용품별로 모아서 지정된 장소와 시간에 배출,일+월+화+수+목+금,일+월+화+수+목+금,일+월+화+수+목+금,18:00,23:00,18:00,23:00,18:00,23:00,토,2022-08-19,2022-12-15
4211010000000 ,강원도,춘천시,운교동 197,1권역,운교동,춘천희망복지센터,37.87508329,127.73233200,"쓰레기봉투를 사용하여 지정된 날짜, 시간에 수거위치에 배출","음식물 쓰레기봉투를 사용하여 지정된 날짜, 시간에 수거위치에 배출",재활용품별로 모아서 지정된 장소와 시간에 배출,일+월+화+수+목+금,일+월+화+수+목+금,일+월+화+수+목+금,18:00,23:00,18:00,23:00,18:00,23:00,토,2022-08-19,2022-12-15
4211010000000 ,강원도,춘천시,약사동 25-3,1권역,약사동,제일연립 건너편,37.87525055,127.72732730,"쓰레기봉투를 사용하여 지정된 날짜, 시간에 수거위치에 배출","음식물 쓰레기봉투를 사용하여 지정된 날짜, 시간에 수거위치에 배출",재활용품별로 모아서 지정된 장소와 시간에 배출,일+월+화+수+목+금,일+월+화+수+목+금,일+월+화+수+목+금,18:00,23:00,18:00,23:00,18:00,23:00,토,2022-08-19,2022-12-15
4211010000000 ,강원도,춘천시,운교동 192,2권역,운교동,교운길22 앞,37.87893286,127.73409610,"쓰레기봉투를 사용하여 지정된 날짜, 시간에 수거위치에 배출","음식물 쓰레기봉투를 사용하여 지정된 날짜, 시간에 수거위치에 배출",재활용품별로 모아서 지정된 장소와 시간에 배출,일+월+화+수+목+금,일+월+화+수+목+금,일+월+화+수+목+금,18:00,23:00,18:00,23:00,18:00,23:00,토,2022-08-19,2022-12-15
4211010000000 ,강원도,춘천시,운교동 193,1권역,운교동,kolping,37.87684758,127.73080380,"쓰레기봉투를 사용하여 지정된 날짜, 시간에 수거위치에 배출","음식물 쓰레기봉투를 사용하여 지정된 날짜, 시간에 수거위치에 배출",재활용품별로 모아서 지정된 장소와 시간에 배출,일+월+화+수+목+금,일+월+화+수+목+금,일+월+화+수+목+금,18:00,23:00,18:00,23:00,18:00,23:00,토,2022-09-30,2022-12-15
4211010000000 ,강원도,춘천시,운교동 193,1권역,운교동,육림한의원,37.87661122,127.73099010,"쓰레기봉투를 사용하여 지정된 날짜, 시간에 수거위치에 배출","음식물 쓰레기봉투를 사용하여 지정된 날짜, 시간에 수거위치에 배출",재활용품별로 모아서 지정된 장소와 시간에 배출,일+월+화+수+목+금,일+월+화+수+목+금,일+월+화+수+목+금,18:00,23:00,18:00,23:00,18:00,23:00,토,2022-09-30,2022-12-15
4211010000000 ,강원도,춘천시,운교동 192,2권역,운교동,동부푸드 건너편,37.87896890,127.73403360,"쓰레기봉투를 사용하여 지정된 날짜, 시간에 수거위치에 배출","음식물 쓰레기봉투를 사용하여 지정된 날짜, 시간에 수거위치에 배출",재활용품별로 모아서 지정된 장소와 시간에 배출,일+월+화+수+목+금,일+월+화+수+목+금,일+월+화+수+목+금,18:00,23:00,18:00,23:00,18:00,23:00,토,2022-10-14,2022-12-15
4211010000000 ,강원도,춘천시,약사동 2-25,1권역,약사동,아담건축사사무소 앞,37.87651610,127.73001840,"쓰레기봉투를 사용하여 지정된 날짜, 시간에 수거위치에 배출","음식물 쓰레기봉투를 사용하여 지정된 날짜, 시간에 수거위치에 배출",재활용품별로 모아서 지정된 장소와 시간에 배출,일+월+화+수+목+금,일+월+화+수+목+금,일+월+화+수+목+금,18:00,23:00,18:00,23:00,18:00,23:00,토,2022-08-19,2022-12-15
4211010000000 ,강원도,춘천시,약사동 1,1권역,약사동,봉의초 뒤,37.87626762,127.72892290,"쓰레기봉투를 사용하여 지정된 날짜, 시간에 수거위치에 배출","음식물 쓰레기봉투를 사용하여 지정된 날짜, 시간에 수거위치에 배출",재활용품별로 모아서 지정된 장소와 시간에 배출,일+월+화+수+목+금,일+월+화+수+목+금,일+월+화+수+목+금,18:00,23:00,18:00,23:00,18:00,23:00,토,2022-08-19,2022-12-15
4211010000000 ,강원도,춘천시,약사동 130-65,1권역,약사동,담벼락앞,37.87426432,127.72427060,"쓰레기봉투를 사용하여 지정된 날짜, 시간에 수거위치에 배출","음식물 쓰레기봉투를 사용하여 지정된 날짜, 시간에 수거위치에 배출",재활용품별로 모아서 지정된 장소와 시간에 배출,일+월+화+수+목+금,일+월+화+수+목+금,일+월+화+수+목+금,18:00,23:00,18:00,23:00,18:00,23:00,토,2022-08-19,2022-12-15
4211010000000 ,강원도,춘천시,약사동 76-81,1권역,약사동,기대수퍼,37.87482145,127.72518790,"쓰레기봉투를 사용하여 지정된 날짜, 시간에 수거위치에 배출","음식물 쓰레기봉투를 사용하여 지정된 날짜, 시간에 수거위치에 배출",재활용품별로 모아서 지정된 장소와 시간에 배출,일+월+화+수+목+금,일+월+화+수+목+금,일+월+화+수+목+금,18:00,23:00,18:00,23:00,18:00,23:00,토,2022-08-19,2022-12-15
4211010000000 ,강원도,춘천시,약사동 2-22,2권역,약사동,노이공방,37.87729981,127.72909480,"쓰레기봉투를 사용하여 지정된 날짜, 시간에 수거위치에 배출","음식물 쓰레기봉투를 사용하여 지정된 날짜, 시간에 수거위치에 배출",재활용품별로 모아서 지정된 장소와 시간에 배출,일+월+화+수+목+금,일+월+화+수+목+금,일+월+화+수+목+금,18:00,23:00,18:00,23:00,18:00,23:00,토,2022-08-19,2022-12-15
4211010000000 ,강원도,춘천시,약사동 163,1권역,약사동,스마트체크,37.87326005,127.72244880,"쓰레기봉투를 사용하여 지정된 날짜, 시간에 수거위치에 배출","음식물 쓰레기봉투를 사용하여 지정된 날짜, 시간에 수거위치에 배출",재활용품별로 모아서 지정된 장소와 시간에 배출,일+월+화+수+목+금,일+월+화+수+목+금,일+월+화+수+목+금,18:00,23:00,18:00,23:00,18:00,23:00,토,2022-08-22,2022-12-15
4211010000000 ,강원도,춘천시,약사동 168-12,1권역,약사동,형제마트앞,37.87305598,127.72587170,"쓰레기봉투를 사용하여 지정된 날짜, 시간에 수거위치에 배출","음식물 쓰레기봉투를 사용하여 지정된 날짜, 시간에 수거위치에 배출",재활용품별로 모아서 지정된 장소와 시간에 배출,일+월+화+수+목+금,일+월+화+수+목+금,일+월+화+수+목+금,18:00,23:00,18:00,23:00,18:00,23:00,토,2022-08-22,2022-12-15
4211010000000 ,강원도,춘천시,중앙로2가 116,1권역,중앙로2가,백두산약국,37.87927949,127.72625520,"쓰레기봉투를 사용하여 지정된 날짜, 시간에 수거위치에 배출","음식물 쓰레기봉투를 사용하여 지정된 날짜, 시간에 수거위치에 배출",재활용품별로 모아서 지정된 장소와 시간에 배출,일+월+화+수+목+금,일+월+화+수+목+금,일+월+화+수+목+금,18:00,23:00,18:00,23:00,18:00,23:00,토,2022-10-20,2022-12-15
4211010000000 ,강원도,춘천시,약사동 77,1권역,약사동,애니와투니어린이집앞,37.87343292,127.72498130,"쓰레기봉투를 사용하여 지정된 날짜, 시간에 수거위치에 배출","음식물 쓰레기봉투를 사용하여 지정된 날짜, 시간에 수거위치에 배출",재활용품별로 모아서 지정된 장소와 시간에 배출,일+월+화+수+목+금,일+월+화+수+목+금,일+월+화+수+목+금,18:00,23:00,18:00,23:00,18:00,23:00,토,2022-08-22,2022-12-15
4211010000000 ,강원도,춘천시,약사동 98-2,1권역,약사동,한일꽃식물원앞,37.87429653,127.72706340,"쓰레기봉투를 사용하여 지정된 날짜, 시간에 수거위치에 배출","음식물 쓰레기봉투를 사용하여 지정된 날짜, 시간에 수거위치에 배출",재활용품별로 모아서 지정된 장소와 시간에 배출,일+월+화+수+목+금,일+월+화+수+목+금,일+월+화+수+목+금,18:00,23:00,18:00,23:00,18:00,23:00,토,2022-08-22,2022-12-15
4211010000000 ,강원도,춘천시,약사동 43-10,1권역,약사동,모라그린세탁소 앞,37.87580220,127.72571560,"쓰레기봉투를 사용하여 지정된 날짜, 시간에 수거위치에 배출","음식물 쓰레기봉투를 사용하여 지정된 날짜, 시간에 수거위치에 배출",재활용품별로 모아서 지정된 장소와 시간에 배출,일+월+화+수+목+금,일+월+화+수+목+금,일+월+화+수+목+금,18:00,23:00,18:00,23:00,18:00,23:00,토,2022-08-23,2022-12-15
4211010000000 ,강원도,춘천시,효자동 764,2권역,효자동,연세우유앞,37.87816567,127.73725820,"쓰레기봉투를 사용하여 지정된 날짜, 시간에 수거위치에 배출","음식물 쓰레기봉투를 사용하여 지정된 날짜, 시간에 수거위치에 배출",재활용품별로 모아서 지정된 장소와 시간에 배출,일+월+화+수+목+금,일+월+화+수+목+금,일+월+화+수+목+금,18:00,23:00,18:00,23:00,18:00,23:00,토,2022-08-19,2022-12-15
4211010000000 ,강원도,춘천시,효자동 192-1,4권역,효자동,강원대 운동장 앞,37.86798365,127.74232670,"쓰레기봉투를 사용하여 지정된 날짜, 시간에 수거위치에 배출","음식물 쓰레기봉투를 사용하여 지정된 날짜, 시간에 수거위치에 배출",재활용품별로 모아서 지정된 장소와 시간에 배출,일+월+화+수+목+금,일+월+화+수+목+금,일+월+화+수+목+금,18:00,23:00,18:00,23:00,18:00,23:00,토,2022-08-29,2022-12-15
4211010000000 ,강원도,춘천시,효자동 210-1,4권역,효자동,강원대 새롬관,37.86575705,127.74376760,"쓰레기봉투를 사용하여 지정된 날짜, 시간에 수거위치에 배출","음식물 쓰레기봉투를 사용하여 지정된 날짜, 시간에 수거위치에 배출",재활용품별로 모아서 지정된 장소와 시간에 배출,일+월+화+수+목+금,일+월+화+수+목+금,일+월+화+수+목+금,18:00,23:00,18:00,23:00,18:00,23:00,토,2022-08-29,2022-12-15
4211010000000 ,강원도,춘천시,효자동 산 25,4권역,효자동,강원대 이름관,37.86570353,127.74368500,"쓰레기봉투를 사용하여 지정된 날짜, 시간에 수거위치에 배출","음식물 쓰레기봉투를 사용하여 지정된 날짜, 시간에 수거위치에 배출",재활용품별로 모아서 지정된 장소와 시간에 배출,일+월+화+수+목+금,일+월+화+수+목+금,일+월+화+수+목+금,18:00,23:00,18:00,23:00,18:00,23:00,토,2022-08-29,2022-12-15
4211010000000 ,강원도,춘천시,효자동 129-206,4권역,효자동,둥지길 31,37.87317758,127.73737650,"쓰레기봉투를 사용하여 지정된 날짜, 시간에 수거위치에 배출","음식물 쓰레기봉투를 사용하여 지정된 날짜, 시간에 수거위치에 배출",재활용품별로 모아서 지정된 장소와 시간에 배출,일+월+화+수+목+금,일+월+화+수+목+금,일+월+화+수+목+금,18:00,23:00,18:00,23:00,18:00,23:00,토,2022-11-07,2022-12-15
4211010000000 ,강원도,춘천시,효자동 210-1,4권역,효자동,강원대 퇴계관,37.86532578,127.74233540,"쓰레기봉투를 사용하여 지정된 날짜, 시간에 수거위치에 배출","음식물 쓰레기봉투를 사용하여 지정된 날짜, 시간에 수거위치에 배출",재활용품별로 모아서 지정된 장소와 시간에 배출,일+월+화+수+목+금,일+월+화+수+목+금,일+월+화+수+목+금,18:00,23:00,18:00,23:00,18:00,23:00,토,2022-08-29,2022-12-15
4211010000000 ,강원도,춘천시,효자동 210-1,4권역,효자동,강원대 예지관,37.86534513,127.74194520,"쓰레기봉투를 사용하여 지정된 날짜, 시간에 수거위치에 배출","음식물 쓰레기봉투를 사용하여 지정된 날짜, 시간에 수거위치에 배출",재활용품별로 모아서 지정된 장소와 시간에 배출,일+월+화+수+목+금,일+월+화+수+목+금,일+월+화+수+목+금,18:00,23:00,18:00,23:00,18:00,23:00,토,2022-08-29,2022-12-15
4211010000000 ,강원도,춘천시,효자동 192-1,4권역,효자동,강원대 한울관,37.86811076,127.74520650,"쓰레기봉투를 사용하여 지정된 날짜, 시간에 수거위치에 배출","음식물 쓰레기봉투를 사용하여 지정된 날짜, 시간에 수거위치에 배출",재활용품별로 모아서 지정된 장소와 시간에 배출,일+월+화+수+목+금,일+월+화+수+목+금,일+월+화+수+목+금,18:00,23:00,18:00,23:00,18:00,23:00,토,2022-08-29,2022-12-15
4211010000000 ,강원도,춘천시,효자동 320-1,4권역,효자동,까투리 옆,37.86441309,127.73603840,"쓰레기봉투를 사용하여 지정된 날짜, 시간에 수거위치에 배출","음식물 쓰레기봉투를 사용하여 지정된 날짜, 시간에 수거위치에 배출",재활용품별로 모아서 지정된 장소와 시간에 배출,일+월+화+수+목+금,일+월+화+수+목+금,일+월+화+수+목+금,18:00,23:00,18:00,23:00,18:00,23:00,토,2022-08-29,2022-12-15
4211010000000 ,강원도,춘천시,효자동 703,4권역,효자동,호타투 앞,37.86648246,127.73261470,"쓰레기봉투를 사용하여 지정된 날짜, 시간에 수거위치에 배출","음식물 쓰레기봉투를 사용하여 지정된 날짜, 시간에 수거위치에 배출",재활용품별로 모아서 지정된 장소와 시간에 배출,일+월+화+수+목+금,일+월+화+수+목+금,일+월+화+수+목+금,18:00,23:00,18:00,23:00,18:00,23:00,토,2022-08-29,2022-12-15
4211010000000 ,강원도,춘천시,효자동 714,4권역,효자동,gs25 앞,37.87051667,127.72494900,"쓰레기봉투를 사용하여 지정된 날짜, 시간에 수거위치에 배출","음식물 쓰레기봉투를 사용하여 지정된 날짜, 시간에 수거위치에 배출",재활용품별로 모아서 지정된 장소와 시간에 배출,일+월+화+수+목+금,일+월+화+수+목+금,일+월+화+수+목+금,18:00,23:00,18:00,23:00,18:00,23:00,토,2022-08-29,2022-12-15
4211010000000 ,강원도,춘천시,효자동 681-26,4권역,효자동,디아펠리즈 주차장,37.87139451,127.72445850,"쓰레기봉투를 사용하여 지정된 날짜, 시간에 수거위치에 배출","음식물 쓰레기봉투를 사용하여 지정된 날짜, 시간에 수거위치에 배출",재활용품별로 모아서 지정된 장소와 시간에 배출,일+월+화+수+목+금,일+월+화+수+목+금,일+월+화+수+목+금,18:00,23:00,18:00,23:00,18:00,23:00,토,2022-08-29,2022-12-15
4211010000000 ,강원도,춘천시,효자동 709-17,4권역,효자동,변호사임미선 법률사무소,37.86713635,127.73255640,"쓰레기봉투를 사용하여 지정된 날짜, 시간에 수거위치에 배출","음식물 쓰레기봉투를 사용하여 지정된 날짜, 시간에 수거위치에 배출",재활용품별로 모아서 지정된 장소와 시간에 배출,일+월+화+수+목+금,일+월+화+수+목+금,일+월+화+수+목+금,18:00,23:00,18:00,23:00,18:00,23:00,토,2022-08-29,2022-12-15
4211010000000 ,강원도,춘천시,효자동 714,4권역,효자동,양우부동산,37.86831123,127.73055740,"쓰레기봉투를 사용하여 지정된 날짜, 시간에 수거위치에 배출","음식물 쓰레기봉투를 사용하여 지정된 날짜, 시간에 수거위치에 배출",재활용품별로 모아서 지정된 장소와 시간에 배출,일+월+화+수+목+금,일+월+화+수+목+금,일+월+화+수+목+금,18:00,23:00,18:00,23:00,18:00,23:00,토,2022-08-29,2022-12-15
4211010000000 ,강원도,춘천시,효자동 714,4권역,효자동,스퀴즈브루어리 앞,37.87009177,127.72710420,"쓰레기봉투를 사용하여 지정된 날짜, 시간에 수거위치에 배출","음식물 쓰레기봉투를 사용하여 지정된 날짜, 시간에 수거위치에 배출",재활용품별로 모아서 지정된 장소와 시간에 배출,일+월+화+수+목+금,일+월+화+수+목+금,일+월+화+수+목+금,18:00,23:00,18:00,23:00,18:00,23:00,토,2022-08-30,2022-12-15
4211010000000 ,강원도,춘천시,효자동 671-14,4권역,효자동,가나안 커텐장식 앞,37.86908847,127.72959460,"쓰레기봉투를 사용하여 지정된 날짜, 시간에 수거위치에 배출","음식물 쓰레기봉투를 사용하여 지정된 날짜, 시간에 수거위치에 배출",재활용품별로 모아서 지정된 장소와 시간에 배출,일+월+화+수+목+금,일+월+화+수+목+금,일+월+화+수+목+금,18:00,23:00,18:00,23:00,18:00,23:00,토,2022-09-02,2022-12-15
4211010000000 ,강원도,춘천시,효자동 672-36,4권역,효자동,경동인력 앞,37.86939199,127.72902370,"쓰레기봉투를 사용하여 지정된 날짜, 시간에 수거위치에 배출","음식물 쓰레기봉투를 사용하여 지정된 날짜, 시간에 수거위치에 배출",재활용품별로 모아서 지정된 장소와 시간에 배출,일+월+화+수+목+금,일+월+화+수+목+금,일+월+화+수+목+금,18:00,23:00,18:00,23:00,18:00,23:00,토,2022-09-02,2022-12-15
4211010000000 ,강원도,춘천시,효자동 672-34,4권역,효자동,김인구정형외과 앞,37.86989097,127.72801250,"쓰레기봉투를 사용하여 지정된 날짜, 시간에 수거위치에 배출","음식물 쓰레기봉투를 사용하여 지정된 날짜, 시간에 수거위치에 배출",재활용품별로 모아서 지정된 장소와 시간에 배출,일+월+화+수+목+금,일+월+화+수+목+금,일+월+화+수+목+금,18:00,23:00,18:00,23:00,18:00,23:00,토,2022-09-02,2022-12-15
4211010000000 ,강원도,춘천시,효자동 673-9,4권역,효자동,별난게임장 옆,37.87014087,127.72748710,"쓰레기봉투를 사용하여 지정된 날짜, 시간에 수거위치에 배출","음식물 쓰레기봉투를 사용하여 지정된 날짜, 시간에 수거위치에 배출",재활용품별로 모아서 지정된 장소와 시간에 배출,일+월+화+수+목+금,일+월+화+수+목+금,일+월+화+수+목+금,18:00,23:00,18:00,23:00,18:00,23:00,토,2022-09-02,2022-12-15
4211010000000 ,강원도,춘천시,효자동 673-9,4권역,효자동,우딘숲몰딩도어 앞,37.87052841,127.72668790,"쓰레기봉투를 사용하여 지정된 날짜, 시간에 수거위치에 배출","음식물 쓰레기봉투를 사용하여 지정된 날짜, 시간에 수거위치에 배출",재활용품별로 모아서 지정된 장소와 시간에 배출,일+월+화+수+목+금,일+월+화+수+목+금,일+월+화+수+목+금,18:00,23:00,18:00,23:00,18:00,23:00,토,2022-09-02,2022-12-15
4211010000000 ,강원도,춘천시,운교동 193,1권역,운교동,육림악기사앞,37.87627008,127.73278920,"쓰레기봉투를 사용하여 지정된 날짜, 시간에 수거위치에 배출","음식물 쓰레기봉투를 사용하여 지정된 날짜, 시간에 수거위치에 배출",재활용품별로 모아서 지정된 장소와 시간에 배출,일+월+화+수+목+금,일+월+화+수+목+금,일+월+화+수+목+금,18:00,23:00,18:00,23:00,18:00,23:00,토,2022-08-19,2022-12-15
4211010000000 ,강원도,춘천시,효자동 654-9,4권역,효자동,stay oz 앞,37.87609951,127.73492070,"쓰레기봉투를 사용하여 지정된 날짜, 시간에 수거위치에 배출","음식물 쓰레기봉투를 사용하여 지정된 날짜, 시간에 수거위치에 배출",재활용품별로 모아서 지정된 장소와 시간에 배출,일+월+화+수+목+금,일+월+화+수+목+금,일+월+화+수+목+금,18:00,23:00,18:00,23:00,18:00,23:00,토,2022-09-02,2022-12-15
4211010000000 ,강원도,춘천시,효자동 635,4권역,효자동,천연바이오,37.87559657,127.73798130,"쓰레기봉투를 사용하여 지정된 날짜, 시간에 수거위치에 배출","음식물 쓰레기봉투를 사용하여 지정된 날짜, 시간에 수거위치에 배출",재활용품별로 모아서 지정된 장소와 시간에 배출,일+월+화+수+목+금,일+월+화+수+목+금,일+월+화+수+목+금,18:00,23:00,18:00,23:00,18:00,23:00,토,2022-09-03,2022-12-15
4211010000000 ,강원도,춘천시,효자동 715,4권역,효자동,광장셀프주유소앞,37.87574607,127.73551130,"쓰레기봉투를 사용하여 지정된 날짜, 시간에 수거위치에 배출","음식물 쓰레기봉투를 사용하여 지정된 날짜, 시간에 수거위치에 배출",재활용품별로 모아서 지정된 장소와 시간에 배출,일+월+화+수+목+금,일+월+화+수+목+금,일+월+화+수+목+금,18:00,23:00,18:00,23:00,18:00,23:00,토,2022-09-03,2022-12-15
4211010000000 ,강원도,춘천시,효자동 651,4권역,효자동,더베네치아호텔 앞,37.87487702,127.73511550,"쓰레기봉투를 사용하여 지정된 날짜, 시간에 수거위치에 배출","음식물 쓰레기봉투를 사용하여 지정된 날짜, 시간에 수거위치에 배출",재활용품별로 모아서 지정된 장소와 시간에 배출,일+월+화+수+목+금,일+월+화+수+목+금,일+월+화+수+목+금,18:00,23:00,18:00,23:00,18:00,23:00,토,2022-09-03,2022-12-15
4211010000000 ,강원도,춘천시,효자동 636,4권역,효자동,한진보일러,37.87469855,127.73595460,"쓰레기봉투를 사용하여 지정된 날짜, 시간에 수거위치에 배출","음식물 쓰레기봉투를 사용하여 지정된 날짜, 시간에 수거위치에 배출",재활용품별로 모아서 지정된 장소와 시간에 배출,일+월+화+수+목+금,일+월+화+수+목+금,일+월+화+수+목+금,18:00,23:00,18:00,23:00,18:00,23:00,토,2022-09-03,2022-12-15
4211010000000 ,강원도,춘천시,효자동 129-169,4권역,효자동,그레이스빌앞,37.87367579,127.73707660,"쓰레기봉투를 사용하여 지정된 날짜, 시간에 수거위치에 배출","음식물 쓰레기봉투를 사용하여 지정된 날짜, 시간에 수거위치에 배출",재활용품별로 모아서 지정된 장소와 시간에 배출,일+월+화+수+목+금,일+월+화+수+목+금,일+월+화+수+목+금,18:00,23:00,18:00,23:00,18:00,23:00,토,2022-09-03,2022-12-15
4211010000000 ,강원도,춘천시,효자동 774,4권역,효자동,유스패밀리앞,37.87305316,127.73891590,"쓰레기봉투를 사용하여 지정된 날짜, 시간에 수거위치에 배출","음식물 쓰레기봉투를 사용하여 지정된 날짜, 시간에 수거위치에 배출",재활용품별로 모아서 지정된 장소와 시간에 배출,일+월+화+수+목+금,일+월+화+수+목+금,일+월+화+수+목+금,18:00,23:00,18:00,23:00,18:00,23:00,토,2022-09-03,2022-12-15
4211010000000 ,강원도,춘천시,효자동 18,2권역,효자동,천사약국,37.87562074,127.74373390,"쓰레기봉투를 사용하여 지정된 날짜, 시간에 수거위치에 배출","음식물 쓰레기봉투를 사용하여 지정된 날짜, 시간에 수거위치에 배출",재활용품별로 모아서 지정된 장소와 시간에 배출,일+월+화+수+목+금,일+월+화+수+목+금,일+월+화+수+목+금,18:00,23:00,18:00,23:00,18:00,23:00,토,2022-09-03,2022-12-15
4211010000000 ,강원도,춘천시,효자동 18,2권역,효자동,정담은,37.87594229,127.74473860,"쓰레기봉투를 사용하여 지정된 날짜, 시간에 수거위치에 배출","음식물 쓰레기봉투를 사용하여 지정된 날짜, 시간에 수거위치에 배출",재활용품별로 모아서 지정된 장소와 시간에 배출,일+월+화+수+목+금,일+월+화+수+목+금,일+월+화+수+목+금,18:00,23:00,18:00,23:00,18:00,23:00,토,2022-09-03,2022-12-15
4211010000000 ,강원도,춘천시,효자동 18,2권역,효자동,운동화빨래터,37.87615983,127.74547590,"쓰레기봉투를 사용하여 지정된 날짜, 시간에 수거위치에 배출","음식물 쓰레기봉투를 사용하여 지정된 날짜, 시간에 수거위치에 배출",재활용품별로 모아서 지정된 장소와 시간에 배출,일+월+화+수+목+금,일+월+화+수+목+금,일+월+화+수+목+금,18:00,23:00,18:00,23:00,18:00,23:00,토,2022-09-03,2022-12-15
4211010000000 ,강원도,춘천시,효자동 638,2권역,효자동,일성아파트담벼락,37.87571561,127.74238290,"쓰레기봉투를 사용하여 지정된 날짜, 시간에 수거위치에 배출","음식물 쓰레기봉투를 사용하여 지정된 날짜, 시간에 수거위치에 배출",재활용품별로 모아서 지정된 장소와 시간에 배출,일+월+화+수+목+금,일+월+화+수+목+금,일+월+화+수+목+금,18:00,23:00,18:00,23:00,18:00,23:00,토,2022-09-03,2022-12-15
4211010000000 ,강원도,춘천시,효자동 638,2권역,효자동,소니 서비스센터,37.87484817,127.74306590,"쓰레기봉투를 사용하여 지정된 날짜, 시간에 수거위치에 배출","음식물 쓰레기봉투를 사용하여 지정된 날짜, 시간에 수거위치에 배출",재활용품별로 모아서 지정된 장소와 시간에 배출,일+월+화+수+목+금,일+월+화+수+목+금,일+월+화+수+목+금,18:00,23:00,18:00,23:00,18:00,23:00,토,2022-09-03,2022-12-15
4211010000000 ,강원도,춘천시,효자동 638,2권역,효자동,도화연립 대로변,37.87464775,127.74289770,"쓰레기봉투를 사용하여 지정된 날짜, 시간에 수거위치에 배출","음식물 쓰레기봉투를 사용하여 지정된 날짜, 시간에 수거위치에 배출",재활용품별로 모아서 지정된 장소와 시간에 배출,일+월+화+수+목+금,일+월+화+수+목+금,일+월+화+수+목+금,18:00,23:00,18:00,23:00,18:00,23:00,토,2022-09-03,2022-12-15
4211010000000 ,강원도,춘천시,효자동 638,2권역,효자동,cu 앞,37.87426677,127.74261920,"쓰레기봉투를 사용하여 지정된 날짜, 시간에 수거위치에 배출","음식물 쓰레기봉투를 사용하여 지정된 날짜, 시간에 수거위치에 배출",재활용품별로 모아서 지정된 장소와 시간에 배출,일+월+화+수+목+금,일+월+화+수+목+금,일+월+화+수+목+금,18:00,23:00,18:00,23:00,18:00,23:00,토,2022-09-03,2022-12-15
4211010000000 ,강원도,춘천시,효자동 625-11,3권역,효자동,봄내음재가방문요양센터,37.87413517,127.74277800,"쓰레기봉투를 사용하여 지정된 날짜, 시간에 수거위치에 배출","음식물 쓰레기봉투를 사용하여 지정된 날짜, 시간에 수거위치에 배출",재활용품별로 모아서 지정된 장소와 시간에 배출,일+월+화+수+목+금,일+월+화+수+목+금,일+월+화+수+목+금,18:00,23:00,18:00,23:00,18:00,23:00,토,2022-09-03,2022-12-15
4211010000000 ,강원도,춘천시,효자동 638,3권역,효자동,사랑관,37.87389618,127.74309930,"쓰레기봉투를 사용하여 지정된 날짜, 시간에 수거위치에 배출","음식물 쓰레기봉투를 사용하여 지정된 날짜, 시간에 수거위치에 배출",재활용품별로 모아서 지정된 장소와 시간에 배출,일+월+화+수+목+금,일+월+화+수+목+금,일+월+화+수+목+금,18:00,23:00,18:00,23:00,18:00,23:00,토,2022-09-03,2022-12-15
4211010000000 ,강원도,춘천시,효자동 631-14,3권역,효자동,장할매국밥,37.87308030,127.74521850,"쓰레기봉투를 사용하여 지정된 날짜, 시간에 수거위치에 배출","음식물 쓰레기봉투를 사용하여 지정된 날짜, 시간에 수거위치에 배출",재활용품별로 모아서 지정된 장소와 시간에 배출,일+월+화+수+목+금,일+월+화+수+목+금,일+월+화+수+목+금,18:00,23:00,18:00,23:00,18:00,23:00,토,2022-09-03,2022-12-15
4211010000000 ,강원도,춘천시,효자동 780,4권역,효자동,nc원룸,37.87316676,127.73973350,"쓰레기봉투를 사용하여 지정된 날짜, 시간에 수거위치에 배출","음식물 쓰레기봉투를 사용하여 지정된 날짜, 시간에 수거위치에 배출",재활용품별로 모아서 지정된 장소와 시간에 배출,일+월+화+수+목+금,일+월+화+수+목+금,일+월+화+수+목+금,18:00,23:00,18:00,23:00,18:00,23:00,토,2022-09-03,2022-12-15
4211010000000 ,강원도,춘천시,효자동 635,4권역,효자동,존존 pc방,37.87304226,127.74364980,"쓰레기봉투를 사용하여 지정된 날짜, 시간에 수거위치에 배출","음식물 쓰레기봉투를 사용하여 지정된 날짜, 시간에 수거위치에 배출",재활용품별로 모아서 지정된 장소와 시간에 배출,일+월+화+수+목+금,일+월+화+수+목+금,일+월+화+수+목+금,18:00,23:00,18:00,23:00,18:00,23:00,토,2022-09-03,2022-12-15
4211010000000 ,강원도,춘천시,효자동 183-69,4권역,효자동,프롬마인드안골목,37.87169671,127.74041680,"쓰레기봉투를 사용하여 지정된 날짜, 시간에 수거위치에 배출","음식물 쓰레기봉투를 사용하여 지정된 날짜, 시간에 수거위치에 배출",재활용품별로 모아서 지정된 장소와 시간에 배출,일+월+화+수+목+금,일+월+화+수+목+금,일+월+화+수+목+금,18:00,23:00,18:00,23:00,18:00,23:00,토,2022-09-03,2022-12-15
4211010000000 ,강원도,춘천시,효자동 159-20,4권역,효자동,상우연립,37.87260816,127.73739350,"쓰레기봉투를 사용하여 지정된 날짜, 시간에 수거위치에 배출","음식물 쓰레기봉투를 사용하여 지정된 날짜, 시간에 수거위치에 배출",재활용품별로 모아서 지정된 장소와 시간에 배출,일+월+화+수+목+금,일+월+화+수+목+금,일+월+화+수+목+금,18:00,23:00,18:00,23:00,18:00,23:00,토,2022-09-03,2022-12-15
4211010000000 ,강원도,춘천시,효자동 635,3권역,효자동,kt,37.87302701,127.74404580,"쓰레기봉투를 사용하여 지정된 날짜, 시간에 수거위치에 배출","음식물 쓰레기봉투를 사용하여 지정된 날짜, 시간에 수거위치에 배출",재활용품별로 모아서 지정된 장소와 시간에 배출,일+월+화+수+목+금,일+월+화+수+목+금,일+월+화+수+목+금,18:00,23:00,18:00,23:00,18:00,23:00,토,2022-09-03,2022-12-15
4211010000000 ,강원도,춘천시,효자동 159-39,4권역,효자동,해든빌,37.87241317,127.73718910,"쓰레기봉투를 사용하여 지정된 날짜, 시간에 수거위치에 배출","음식물 쓰레기봉투를 사용하여 지정된 날짜, 시간에 수거위치에 배출",재활용품별로 모아서 지정된 장소와 시간에 배출,일+월+화+수+목+금,일+월+화+수+목+금,일+월+화+수+목+금,18:00,23:00,18:00,23:00,18:00,23:00,토,2022-09-03,2022-12-15
4211010000000 ,강원도,춘천시,효자동 628-5,3권역,효자동,엔젤리너스,37.87319502,127.74370360,"쓰레기봉투를 사용하여 지정된 날짜, 시간에 수거위치에 배출","음식물 쓰레기봉투를 사용하여 지정된 날짜, 시간에 수거위치에 배출",재활용품별로 모아서 지정된 장소와 시간에 배출,일+월+화+수+목+금,일+월+화+수+목+금,일+월+화+수+목+금,18:00,23:00,18:00,23:00,18:00,23:00,토,2022-09-03,2022-12-15
4211010000000 ,강원도,춘천시,효자동 635,4권역,효자동,더 벤티,37.87317918,127.74332710,"쓰레기봉투를 사용하여 지정된 날짜, 시간에 수거위치에 배출","음식물 쓰레기봉투를 사용하여 지정된 날짜, 시간에 수거위치에 배출",재활용품별로 모아서 지정된 장소와 시간에 배출,일+월+화+수+목+금,일+월+화+수+목+금,일+월+화+수+목+금,18:00,23:00,18:00,23:00,18:00,23:00,토,2022-09-03,2022-12-15
4211010000000 ,강원도,춘천시,요선동 19-1,2권역,요선동,조운소양동 도시재생 앞,37.88324495,127.72777260,"쓰레기봉투를 사용하여 지정된 날짜, 시간에 수거위치에 배출","음식물 쓰레기봉투를 사용하여 지정된 날짜, 시간에 수거위치에 배출",재활용품별로 모아서 지정된 장소와 시간에 배출,일+월+화+수+목+금,일+월+화+수+목+금,일+월+화+수+목+금,18:00,23:00,18:00,23:00,18:00,23:00,토,2022-08-23,2022-12-15
4211010000000 ,강원도,춘천시,효자동 18,2권역,효자동,초등학교앞 이마트 24,37.87635929,127.74321140,"쓰레기봉투를 사용하여 지정된 날짜, 시간에 수거위치에 배출","음식물 쓰레기봉투를 사용하여 지정된 날짜, 시간에 수거위치에 배출",재활용품별로 모아서 지정된 장소와 시간에 배출,일+월+화+수+목+금,일+월+화+수+목+금,일+월+화+수+목+금,18:00,23:00,18:00,23:00,18:00,23:00,토,2022-09-03,2022-12-15
4211010000000 ,강원도,춘천시,효자동 산 7-9,3권역,효자동,Cc노래연습장,37.87492264,127.74614630,"쓰레기봉투를 사용하여 지정된 날짜, 시간에 수거위치에 배출","음식물 쓰레기봉투를 사용하여 지정된 날짜, 시간에 수거위치에 배출",재활용품별로 모아서 지정된 장소와 시간에 배출,일+월+화+수+목+금,일+월+화+수+목+금,일+월+화+수+목+금,18:00,23:00,18:00,23:00,18:00,23:00,토,2022-09-03,2022-12-15
4211010000000 ,강원도,춘천시,효자동 산 9-4,3권역,효자동,효자동 15-14,37.87393207,127.74504250,"쓰레기봉투를 사용하여 지정된 날짜, 시간에 수거위치에 배출","음식물 쓰레기봉투를 사용하여 지정된 날짜, 시간에 수거위치에 배출",재활용품별로 모아서 지정된 장소와 시간에 배출,일+월+화+수+목+금,일+월+화+수+목+금,일+월+화+수+목+금,18:00,23:00,18:00,23:00,18:00,23:00,토,2022-09-03,2022-12-15
4211010000000 ,강원도,춘천시,효자동 114-312,2권역,효자동,보안등 21-055,37.87710496,127.73990690,"쓰레기봉투를 사용하여 지정된 날짜, 시간에 수거위치에 배출","음식물 쓰레기봉투를 사용하여 지정된 날짜, 시간에 수거위치에 배출",재활용품별로 모아서 지정된 장소와 시간에 배출,일+월+화+수+목+금,일+월+화+수+목+금,일+월+화+수+목+금,18:00,23:00,18:00,23:00,18:00,23:00,토,2022-09-03,2022-12-15
4211010000000 ,강원도,춘천시,효자동 749-7,2권역,효자동,효자동 749-7,37.87772843,127.74058980,"쓰레기봉투를 사용하여 지정된 날짜, 시간에 수거위치에 배출","음식물 쓰레기봉투를 사용하여 지정된 날짜, 시간에 수거위치에 배출",재활용품별로 모아서 지정된 장소와 시간에 배출,일+월+화+수+목+금,일+월+화+수+목+금,일+월+화+수+목+금,18:00,23:00,18:00,23:00,18:00,23:00,토,2022-09-03,2022-12-15
4211010000000 ,강원도,춘천시,효자동 758-25,2권역,효자동,효평길 52-1,37.87861448,127.74174900,"쓰레기봉투를 사용하여 지정된 날짜, 시간에 수거위치에 배출","음식물 쓰레기봉투를 사용하여 지정된 날짜, 시간에 수거위치에 배출",재활용품별로 모아서 지정된 장소와 시간에 배출,일+월+화+수+목+금,일+월+화+수+목+금,일+월+화+수+목+금,18:00,23:00,18:00,23:00,18:00,23:00,토,2022-09-03,2022-12-15
4211010000000 ,강원도,춘천시,효자동 606-3,2권역,효자동,효자동 606-3,37.87599703,127.73863300,"쓰레기봉투를 사용하여 지정된 날짜, 시간에 수거위치에 배출","음식물 쓰레기봉투를 사용하여 지정된 날짜, 시간에 수거위치에 배출",재활용품별로 모아서 지정된 장소와 시간에 배출,일+월+화+수+목+금,일+월+화+수+목+금,일+월+화+수+목+금,18:00,23:00,18:00,23:00,18:00,23:00,토,2022-09-03,2022-12-15
4211010000000 ,강원도,춘천시,효자동 646-10,2권역,효자동,더맥스 입시미술학원,37.87614324,127.73720820,"쓰레기봉투를 사용하여 지정된 날짜, 시간에 수거위치에 배출","음식물 쓰레기봉투를 사용하여 지정된 날짜, 시간에 수거위치에 배출",재활용품별로 모아서 지정된 장소와 시간에 배출,일+월+화+수+목+금,일+월+화+수+목+금,일+월+화+수+목+금,18:00,23:00,18:00,23:00,18:00,23:00,토,2022-09-03,2022-12-15
4211010000000 ,강원도,춘천시,효자동 643-9,2권역,효자동,마담순살떡볶이,37.87631051,127.73683070,"쓰레기봉투를 사용하여 지정된 날짜, 시간에 수거위치에 배출","음식물 쓰레기봉투를 사용하여 지정된 날짜, 시간에 수거위치에 배출",재활용품별로 모아서 지정된 장소와 시간에 배출,일+월+화+수+목+금,일+월+화+수+목+금,일+월+화+수+목+금,18:00,23:00,18:00,23:00,18:00,23:00,토,2022-09-03,2022-12-15
4211010000000 ,강원도,춘천시,효자동 643-7,2권역,효자동,청명의료기,37.87640821,127.73661410,"쓰레기봉투를 사용하여 지정된 날짜, 시간에 수거위치에 배출","음식물 쓰레기봉투를 사용하여 지정된 날짜, 시간에 수거위치에 배출",재활용품별로 모아서 지정된 장소와 시간에 배출,일+월+화+수+목+금,일+월+화+수+목+금,일+월+화+수+목+금,18:00,23:00,18:00,23:00,18:00,23:00,토,2022-09-03,2022-12-15
4211010000000 ,강원도,춘천시,효자동 760,2권역,효자동,남부간 38,37.87733172,127.73760490,"쓰레기봉투를 사용하여 지정된 날짜, 시간에 수거위치에 배출","음식물 쓰레기봉투를 사용하여 지정된 날짜, 시간에 수거위치에 배출",재활용품별로 모아서 지정된 장소와 시간에 배출,일+월+화+수+목+금,일+월+화+수+목+금,일+월+화+수+목+금,18:00,23:00,18:00,23:00,18:00,23:00,토,2022-09-03,2022-12-15
4211010000000 ,강원도,춘천시,효자동 760,2권역,효자동,sh빌라,37.87745292,127.73790530,"쓰레기봉투를 사용하여 지정된 날짜, 시간에 수거위치에 배출","음식물 쓰레기봉투를 사용하여 지정된 날짜, 시간에 수거위치에 배출",재활용품별로 모아서 지정된 장소와 시간에 배출,일+월+화+수+목+금,일+월+화+수+목+금,일+월+화+수+목+금,18:00,23:00,18:00,23:00,18:00,23:00,토,2022-09-03,2022-12-15
4211010000000 ,강원도,춘천시,효자동 766,2권역,효자동,보안등 21-019,37.88024346,127.74082270,"쓰레기봉투를 사용하여 지정된 날짜, 시간에 수거위치에 배출","음식물 쓰레기봉투를 사용하여 지정된 날짜, 시간에 수거위치에 배출",재활용품별로 모아서 지정된 장소와 시간에 배출,일+월+화+수+목+금,일+월+화+수+목+금,일+월+화+수+목+금,18:00,23:00,18:00,23:00,18:00,23:00,토,2022-09-03,2022-12-15
4211010000000 ,강원도,춘천시,효자동 754-1,2권역,효자동,고운헤어샵,37.88020976,127.74030240,"쓰레기봉투를 사용하여 지정된 날짜, 시간에 수거위치에 배출","음식물 쓰레기봉투를 사용하여 지정된 날짜, 시간에 수거위치에 배출",재활용품별로 모아서 지정된 장소와 시간에 배출,일+월+화+수+목+금,일+월+화+수+목+금,일+월+화+수+목+금,18:00,23:00,18:00,23:00,18:00,23:00,토,2022-09-03,2022-12-15
4211010000000 ,강원도,춘천시,효자동 765,2권역,효자동,대운설비,37.88028242,127.74013990,"쓰레기봉투를 사용하여 지정된 날짜, 시간에 수거위치에 배출","음식물 쓰레기봉투를 사용하여 지정된 날짜, 시간에 수거위치에 배출",재활용품별로 모아서 지정된 장소와 시간에 배출,일+월+화+수+목+금,일+월+화+수+목+금,일+월+화+수+목+금,18:00,23:00,18:00,23:00,18:00,23:00,토,2022-09-03,2022-12-15
4211010000000 ,강원도,춘천시,효자동 40-6,2권역,효자동,세븐일레븐,37.87591706,127.74090630,"쓰레기봉투를 사용하여 지정된 날짜, 시간에 수거위치에 배출","음식물 쓰레기봉투를 사용하여 지정된 날짜, 시간에 수거위치에 배출",재활용품별로 모아서 지정된 장소와 시간에 배출,일+월+화+수+목+금,일+월+화+수+목+금,일+월+화+수+목+금,18:00,23:00,18:00,23:00,18:00,23:00,토,2022-09-05,2022-12-15
4211010000000 ,강원도,춘천시,효자동 764,2권역,효자동,이은지미용실,37.87877483,127.73939530,"쓰레기봉투를 사용하여 지정된 날짜, 시간에 수거위치에 배출","음식물 쓰레기봉투를 사용하여 지정된 날짜, 시간에 수거위치에 배출",재활용품별로 모아서 지정된 장소와 시간에 배출,일+월+화+수+목+금,일+월+화+수+목+금,일+월+화+수+목+금,18:00,23:00,18:00,23:00,18:00,23:00,토,2022-09-05,2022-12-15
4211010000000 ,강원도,춘천시,효자동 760,2권역,효자동,Kcc페인트,37.87793173,127.73853740,"쓰레기봉투를 사용하여 지정된 날짜, 시간에 수거위치에 배출","음식물 쓰레기봉투를 사용하여 지정된 날짜, 시간에 수거위치에 배출",재활용품별로 모아서 지정된 장소와 시간에 배출,일+월+화+수+목+금,일+월+화+수+목+금,일+월+화+수+목+금,18:00,23:00,18:00,23:00,18:00,23:00,토,2022-09-03,2022-12-15
4211010000000 ,강원도,춘천시,효자동 750-6,2권역,효자동,넥센타이어,37.87858263,127.74041160,"쓰레기봉투를 사용하여 지정된 날짜, 시간에 수거위치에 배출","음식물 쓰레기봉투를 사용하여 지정된 날짜, 시간에 수거위치에 배출",재활용품별로 모아서 지정된 장소와 시간에 배출,일+월+화+수+목+금,일+월+화+수+목+금,일+월+화+수+목+금,18:00,23:00,18:00,23:00,18:00,23:00,토,2022-09-03,2022-12-15
4211010000000 ,강원도,춘천시,효자동 760,2권역,효자동,가온수학학원,37.87920183,127.74130590,"쓰레기봉투를 사용하여 지정된 날짜, 시간에 수거위치에 배출","음식물 쓰레기봉투를 사용하여 지정된 날짜, 시간에 수거위치에 배출",재활용품별로 모아서 지정된 장소와 시간에 배출,일+월+화+수+목+금,일+월+화+수+목+금,일+월+화+수+목+금,18:00,23:00,18:00,23:00,18:00,23:00,토,2022-09-03,2022-12-15
4211010000000 ,강원도,춘천시,효자동 755-29,2권역,효자동,효자동 755-29,37.88002448,127.74120700,"쓰레기봉투를 사용하여 지정된 날짜, 시간에 수거위치에 배출","음식물 쓰레기봉투를 사용하여 지정된 날짜, 시간에 수거위치에 배출",재활용품별로 모아서 지정된 장소와 시간에 배출,일+월+화+수+목+금,일+월+화+수+목+금,일+월+화+수+목+금,18:00,23:00,18:00,23:00,18:00,23:00,토,2022-09-03,2022-12-15
4211010000000 ,강원도,춘천시,효자동 233-5,4권역,효자동,U마트,37.86196605,127.74125670,"쓰레기봉투를 사용하여 지정된 날짜, 시간에 수거위치에 배출","음식물 쓰레기봉투를 사용하여 지정된 날짜, 시간에 수거위치에 배출",재활용품별로 모아서 지정된 장소와 시간에 배출,일+월+화+수+목+금,일+월+화+수+목+금,일+월+화+수+목+금,18:00,23:00,18:00,23:00,18:00,23:00,토,2022-09-07,2022-12-15
4211010000000 ,강원도,춘천시,효자동 233-5,4권역,효자동,꿈꾸는요셉,37.86210229,127.74081910,"쓰레기봉투를 사용하여 지정된 날짜, 시간에 수거위치에 배출","음식물 쓰레기봉투를 사용하여 지정된 날짜, 시간에 수거위치에 배출",재활용품별로 모아서 지정된 장소와 시간에 배출,일+월+화+수+목+금,일+월+화+수+목+금,일+월+화+수+목+금,18:00,23:00,18:00,23:00,18:00,23:00,토,2022-09-07,2022-12-15
4211010000000 ,강원도,춘천시,효자동 240-6,4권역,효자동,Gs25 앞,37.86231576,127.74023090,"쓰레기봉투를 사용하여 지정된 날짜, 시간에 수거위치에 배출","음식물 쓰레기봉투를 사용하여 지정된 날짜, 시간에 수거위치에 배출",재활용품별로 모아서 지정된 장소와 시간에 배출,일+월+화+수+목+금,일+월+화+수+목+금,일+월+화+수+목+금,18:00,23:00,18:00,23:00,18:00,23:00,토,2022-09-07,2022-12-15
4211010000000 ,강원도,춘천시,효자동 235-12,4권역,효자동,아이스크림할인점 앞,37.86252269,127.73979700,"쓰레기봉투를 사용하여 지정된 날짜, 시간에 수거위치에 배출","음식물 쓰레기봉투를 사용하여 지정된 날짜, 시간에 수거위치에 배출",재활용품별로 모아서 지정된 장소와 시간에 배출,일+월+화+수+목+금,일+월+화+수+목+금,일+월+화+수+목+금,18:00,23:00,18:00,23:00,18:00,23:00,토,2022-09-07,2022-12-15
4211010000000 ,강원도,춘천시,효자동 491-291,4권역,효자동,클잎정 앞,37.87250970,127.73099240,"쓰레기봉투를 사용하여 지정된 날짜, 시간에 수거위치에 배출","음식물 쓰레기봉투를 사용하여 지정된 날짜, 시간에 수거위치에 배출",재활용품별로 모아서 지정된 장소와 시간에 배출,일+월+화+수+목+금,일+월+화+수+목+금,일+월+화+수+목+금,18:00,23:00,18:00,23:00,18:00,23:00,토,2022-09-30,2022-12-15
4211010000000 ,강원도,춘천시,효자동 491-97,4권역,효자동,더 베이커리 앞,37.87271609,127.73297130,"쓰레기봉투를 사용하여 지정된 날짜, 시간에 수거위치에 배출","음식물 쓰레기봉투를 사용하여 지정된 날짜, 시간에 수거위치에 배출",재활용품별로 모아서 지정된 장소와 시간에 배출,일+월+화+수+목+금,일+월+화+수+목+금,일+월+화+수+목+금,18:00,23:00,18:00,23:00,18:00,23:00,토,2022-09-30,2022-12-15
4211010000000 ,강원도,춘천시,효자동 662,4권역,효자동,더 베이커리,37.87268551,127.73313110,"쓰레기봉투를 사용하여 지정된 날짜, 시간에 수거위치에 배출","음식물 쓰레기봉투를 사용하여 지정된 날짜, 시간에 수거위치에 배출",재활용품별로 모아서 지정된 장소와 시간에 배출,일+월+화+수+목+금,일+월+화+수+목+금,일+월+화+수+목+금,18:00,23:00,18:00,23:00,18:00,23:00,토,2022-09-30,2022-12-15
4211010000000 ,강원도,춘천시,효자동 662-28,4권역,효자동,애터미 앞,37.87223846,127.73289140,"쓰레기봉투를 사용하여 지정된 날짜, 시간에 수거위치에 배출","음식물 쓰레기봉투를 사용하여 지정된 날짜, 시간에 수거위치에 배출",재활용품별로 모아서 지정된 장소와 시간에 배출,일+월+화+수+목+금,일+월+화+수+목+금,일+월+화+수+목+금,18:00,23:00,18:00,23:00,18:00,23:00,토,2022-09-30,2022-12-15
4211010000000 ,강원도,춘천시,효자동 724-1,4권역,효자동,넓적치킨 앞,37.87224880,127.73278700,"쓰레기봉투를 사용하여 지정된 날짜, 시간에 수거위치에 배출","음식물 쓰레기봉투를 사용하여 지정된 날짜, 시간에 수거위치에 배출",재활용품별로 모아서 지정된 장소와 시간에 배출,일+월+화+수+목+금,일+월+화+수+목+금,일+월+화+수+목+금,18:00,23:00,18:00,23:00,18:00,23:00,토,2022-09-30,2022-12-15
4211010000000 ,강원도,춘천시,후평동 841,3권역,후평동,센스빌 앞,37.87560271,127.75320460,"쓰레기봉투를 사용하여 지정된 날짜, 시간에 수거위치에 배출","음식물 쓰레기봉투를 사용하여 지정된 날짜, 시간에 수거위치에 배출",재활용품별로 모아서 지정된 장소와 시간에 배출,일+월+화+수+목+금,일+월+화+수+목+금,일+월+화+수+목+금,18:00,23:00,18:00,23:00,18:00,23:00,토,2022-08-21,2022-12-15
4211010000000 ,강원도,춘천시,효자동 663-1,4권역,효자동,돈 나와라뚝딱,37.87197015,127.73275880,"쓰레기봉투를 사용하여 지정된 날짜, 시간에 수거위치에 배출","음식물 쓰레기봉투를 사용하여 지정된 날짜, 시간에 수거위치에 배출",재활용품별로 모아서 지정된 장소와 시간에 배출,일+월+화+수+목+금,일+월+화+수+목+금,일+월+화+수+목+금,18:00,23:00,18:00,23:00,18:00,23:00,토,2022-09-30,2022-12-15
4211010000000 ,강원도,춘천시,효자동 663-9,4권역,효자동,gs25앞,37.87130351,127.73239340,"쓰레기봉투를 사용하여 지정된 날짜, 시간에 수거위치에 배출","음식물 쓰레기봉투를 사용하여 지정된 날짜, 시간에 수거위치에 배출",재활용품별로 모아서 지정된 장소와 시간에 배출,일+월+화+수+목+금,일+월+화+수+목+금,일+월+화+수+목+금,18:00,23:00,18:00,23:00,18:00,23:00,토,2022-09-30,2022-12-15
4211010000000 ,강원도,춘천시,효자동 668-11,4권역,효자동,gs25,37.87130101,127.73220500,"쓰레기봉투를 사용하여 지정된 날짜, 시간에 수거위치에 배출","음식물 쓰레기봉투를 사용하여 지정된 날짜, 시간에 수거위치에 배출",재활용품별로 모아서 지정된 장소와 시간에 배출,일+월+화+수+목+금,일+월+화+수+목+금,일+월+화+수+목+금,18:00,23:00,18:00,23:00,18:00,23:00,토,2022-09-30,2022-12-15
4211010000000 ,강원도,춘천시,효자동 715,4권역,효자동,효성전기 옆,37.87092325,127.73205990,"쓰레기봉투를 사용하여 지정된 날짜, 시간에 수거위치에 배출","음식물 쓰레기봉투를 사용하여 지정된 날짜, 시간에 수거위치에 배출",재활용품별로 모아서 지정된 장소와 시간에 배출,일+월+화+수+목+금,일+월+화+수+목+금,일+월+화+수+목+금,18:00,23:00,18:00,23:00,18:00,23:00,토,2022-09-30,2022-12-15
4211010000000 ,강원도,춘천시,효자동 715,4권역,효자동,효성전기 앞,37.87086508,127.73199480,"쓰레기봉투를 사용하여 지정된 날짜, 시간에 수거위치에 배출","음식물 쓰레기봉투를 사용하여 지정된 날짜, 시간에 수거위치에 배출",재활용품별로 모아서 지정된 장소와 시간에 배출,일+월+화+수+목+금,일+월+화+수+목+금,일+월+화+수+목+금,18:00,23:00,18:00,23:00,18:00,23:00,토,2022-09-30,2022-12-15
4211010000000 ,강원도,춘천시,요선동 19,2권역,요선동,오늘의커피 앞,37.88202052,127.72841520,"쓰레기봉투를 사용하여 지정된 날짜, 시간에 수거위치에 배출","음식물 쓰레기봉투를 사용하여 지정된 날짜, 시간에 수거위치에 배출",재활용품별로 모아서 지정된 장소와 시간에 배출,일+월+화+수+목+금,일+월+화+수+목+금,일+월+화+수+목+금,18:00,23:00,18:00,23:00,18:00,23:00,토,2022-08-23,2022-12-15
4211010000000 ,강원도,춘천시,효자동 159-20,4권역,효자동,상우연립 담벼락,37.87233402,127.73713200,"쓰레기봉투를 사용하여 지정된 날짜, 시간에 수거위치에 배출","음식물 쓰레기봉투를 사용하여 지정된 날짜, 시간에 수거위치에 배출",재활용품별로 모아서 지정된 장소와 시간에 배출,일+월+화+수+목+금,일+월+화+수+목+금,일+월+화+수+목+금,18:00,23:00,18:00,23:00,18:00,23:00,토,2022-11-07,2022-12-15
4211010000000 ,강원도,춘천시,효자동 159-20,4권역,효자동,삼정주택 옆,37.87221830,127.73823630,"쓰레기봉투를 사용하여 지정된 날짜, 시간에 수거위치에 배출","음식물 쓰레기봉투를 사용하여 지정된 날짜, 시간에 수거위치에 배출",재활용품별로 모아서 지정된 장소와 시간에 배출,일+월+화+수+목+금,일+월+화+수+목+금,일+월+화+수+목+금,18:00,23:00,18:00,23:00,18:00,23:00,토,2022-11-07,2022-12-15
4211010000000 ,강원도,춘천시,효자동 159-39,4권역,효자동,상우연립 B,37.87261860,127.73732890,"쓰레기봉투를 사용하여 지정된 날짜, 시간에 수거위치에 배출","음식물 쓰레기봉투를 사용하여 지정된 날짜, 시간에 수거위치에 배출",재활용품별로 모아서 지정된 장소와 시간에 배출,일+월+화+수+목+금,일+월+화+수+목+금,일+월+화+수+목+금,18:00,23:00,18:00,23:00,18:00,23:00,토,2022-11-07,2022-12-15
4211010000000 ,강원도,춘천시,효자동 788,4권역,효자동,둥지길 43번길,37.87233275,127.73893980,"쓰레기봉투를 사용하여 지정된 날짜, 시간에 수거위치에 배출","음식물 쓰레기봉투를 사용하여 지정된 날짜, 시간에 수거위치에 배출",재활용품별로 모아서 지정된 장소와 시간에 배출,일+월+화+수+목+금,일+월+화+수+목+금,일+월+화+수+목+금,18:00,23:00,18:00,23:00,18:00,23:00,토,2022-11-07,2022-12-15
4211010000000 ,강원도,춘천시,효자동 51-2,2권역,효자동,동춘천초등학교,37.87801103,127.74269830,"쓰레기봉투를 사용하여 지정된 날짜, 시간에 수거위치에 배출","음식물 쓰레기봉투를 사용하여 지정된 날짜, 시간에 수거위치에 배출",재활용품별로 모아서 지정된 장소와 시간에 배출,일+월+화+수+목+금,일+월+화+수+목+금,일+월+화+수+목+금,18:00,23:00,18:00,23:00,18:00,23:00,토,2022-11-07,2022-12-15
4211010000000 ,강원도,춘천시,효자동 44-3,2권역,효자동,세정빌 앞,37.87761920,127.74184000,"쓰레기봉투를 사용하여 지정된 날짜, 시간에 수거위치에 배출","음식물 쓰레기봉투를 사용하여 지정된 날짜, 시간에 수거위치에 배출",재활용품별로 모아서 지정된 장소와 시간에 배출,일+월+화+수+목+금,일+월+화+수+목+금,일+월+화+수+목+금,18:00,23:00,18:00,23:00,18:00,23:00,토,2022-11-07,2022-12-15
4211010000000 ,강원도,춘천시,효자동 777,4권역,효자동,짱인치킨,37.87285814,127.74163400,"쓰레기봉투를 사용하여 지정된 날짜, 시간에 수거위치에 배출","음식물 쓰레기봉투를 사용하여 지정된 날짜, 시간에 수거위치에 배출",재활용품별로 모아서 지정된 장소와 시간에 배출,일+월+화+수+목+금,일+월+화+수+목+금,일+월+화+수+목+금,18:00,23:00,18:00,23:00,18:00,23:00,토,2022-11-07,2022-12-15
4211010000000 ,강원도,춘천시,효자동 40-6,2권역,효자동,보안등 효자3동 21-094,37.87594900,127.74084190,"쓰레기봉투를 사용하여 지정된 날짜, 시간에 수거위치에 배출","음식물 쓰레기봉투를 사용하여 지정된 날짜, 시간에 수거위치에 배출",재활용품별로 모아서 지정된 장소와 시간에 배출,일+월+화+수+목+금,일+월+화+수+목+금,일+월+화+수+목+금,18:00,23:00,18:00,23:00,18:00,23:00,토,2022-11-07,2022-12-15
4211010000000 ,강원도,춘천시,효자동 168-239,4권역,효자동,명훈주택,37.86897260,127.73453750,"쓰레기봉투를 사용하여 지정된 날짜, 시간에 수거위치에 배출","음식물 쓰레기봉투를 사용하여 지정된 날짜, 시간에 수거위치에 배출",재활용품별로 모아서 지정된 장소와 시간에 배출,일+월+화+수+목+금,일+월+화+수+목+금,일+월+화+수+목+금,18:00,23:00,18:00,23:00,18:00,23:00,토,2022-11-07,2022-12-15
4211010000000 ,강원도,춘천시,효자동 715,2권역,효자동,PET SALON앞 ,37.87627713,127.73687180,"쓰레기봉투를 사용하여 지정된 날짜, 시간에 수거위치에 배출","음식물 쓰레기봉투를 사용하여 지정된 날짜, 시간에 수거위치에 배출",재활용품별로 모아서 지정된 장소와 시간에 배출,일+월+화+수+목+금,일+월+화+수+목+금,일+월+화+수+목+금,18:00,23:00,18:00,23:00,18:00,23:00,토,2022-11-07,2022-12-15
4211010000000 ,강원도,춘천시,효자동 715,2권역,효자동,우주종합어시장 건너편,37.87725491,127.73742320,"쓰레기봉투를 사용하여 지정된 날짜, 시간에 수거위치에 배출","음식물 쓰레기봉투를 사용하여 지정된 날짜, 시간에 수거위치에 배출",재활용품별로 모아서 지정된 장소와 시간에 배출,일+월+화+수+목+금,일+월+화+수+목+금,일+월+화+수+목+금,18:00,23:00,18:00,23:00,18:00,23:00,토,2022-11-07,2022-12-15
4211010000000 ,강원도,춘천시,중앙로2가 116,1권역,중앙로2가,리안헤어,37.87959958,127.72664180,"쓰레기봉투를 사용하여 지정된 날짜, 시간에 수거위치에 배출","음식물 쓰레기봉투를 사용하여 지정된 날짜, 시간에 수거위치에 배출",재활용품별로 모아서 지정된 장소와 시간에 배출,일+월+화+수+목+금,일+월+화+수+목+금,일+월+화+수+목+금,18:00,23:00,18:00,23:00,18:00,23:00,토,2022-10-20,2022-12-15
4211010000000 ,강원도,춘천시,효자동 151-1,4권역,효자동,예스머리방건너,37.87225537,127.73450750,"쓰레기봉투를 사용하여 지정된 날짜, 시간에 수거위치에 배출","음식물 쓰레기봉투를 사용하여 지정된 날짜, 시간에 수거위치에 배출",재활용품별로 모아서 지정된 장소와 시간에 배출,일+월+화+수+목+금,일+월+화+수+목+금,일+월+화+수+목+금,18:00,23:00,18:00,23:00,18:00,23:00,토,2022-11-07,2022-12-15
4211010000000 ,강원도,춘천시,효자동 760,2권역,효자동,새한전기,37.87791902,127.73891070,"쓰레기봉투를 사용하여 지정된 날짜, 시간에 수거위치에 배출","음식물 쓰레기봉투를 사용하여 지정된 날짜, 시간에 수거위치에 배출",재활용품별로 모아서 지정된 장소와 시간에 배출,일+월+화+수+목+금,일+월+화+수+목+금,일+월+화+수+목+금,18:00,23:00,18:00,23:00,18:00,23:00,토,2022-11-07,2022-12-15
4211010000000 ,강원도,춘천시,효자동 766,1권역,효자동,해오름빌,37.87964446,127.74169750,"쓰레기봉투를 사용하여 지정된 날짜, 시간에 수거위치에 배출","음식물 쓰레기봉투를 사용하여 지정된 날짜, 시간에 수거위치에 배출",재활용품별로 모아서 지정된 장소와 시간에 배출,일+월+화+수+목+금,일+월+화+수+목+금,일+월+화+수+목+금,18:00,23:00,18:00,23:00,18:00,23:00,토,2022-11-07,2022-12-15
4211010000000 ,강원도,춘천시,소양로1가 78-18,1권역,소양로1가,석왕사,37.89041508,127.72603240,"쓰레기봉투를 사용하여 지정된 날짜, 시간에 수거위치에 배출","음식물 쓰레기봉투를 사용하여 지정된 날짜, 시간에 수거위치에 배출",재활용품별로 모아서 지정된 장소와 시간에 배출,일+월+화+수+목+금,일+월+화+수+목+금,일+월+화+수+목+금,18:00,23:00,18:00,23:00,18:00,23:00,토,2022-10-18,2022-12-15
4211010000000 ,강원도,춘천시,중앙로2가 116,1권역,중앙로2가,춘천신협 앞,37.87994039,127.72724880,"쓰레기봉투를 사용하여 지정된 날짜, 시간에 수거위치에 배출","음식물 쓰레기봉투를 사용하여 지정된 날짜, 시간에 수거위치에 배출",재활용품별로 모아서 지정된 장소와 시간에 배출,일+월+화+수+목+금,일+월+화+수+목+금,일+월+화+수+목+금,18:00,23:00,18:00,23:00,18:00,23:00,토,2022-08-23,2022-12-15
4211010000000 ,강원도,춘천시,효자동 663-8,4권역,효자동,광진전자,37.87139604,127.73242920,"쓰레기봉투를 사용하여 지정된 날짜, 시간에 수거위치에 배출","음식물 쓰레기봉투를 사용하여 지정된 날짜, 시간에 수거위치에 배출",재활용품별로 모아서 지정된 장소와 시간에 배출,일+월+화+수+목+금,일+월+화+수+목+금,일+월+화+수+목+금,18:00,23:00,18:00,23:00,18:00,23:00,토,2022-11-11,2022-12-15
4211010000000 ,강원도,춘천시,소양로1가 103-33,1권역,소양로1가,춘천해장국 앞,37.89242640,127.72706510,"쓰레기봉투를 사용하여 지정된 날짜, 시간에 수거위치에 배출","음식물 쓰레기봉투를 사용하여 지정된 날짜, 시간에 수거위치에 배출",재활용품별로 모아서 지정된 장소와 시간에 배출,일+월+화+수+목+금,일+월+화+수+목+금,일+월+화+수+목+금,18:00,23:00,18:00,23:00,18:00,23:00,토,2022-10-18,2022-12-15
4211010000000 ,강원도,춘천시,소양로1가 107,1권역,소양로1가,소양정길 15-1 주택,37.89269009,127.72800190,"쓰레기봉투를 사용하여 지정된 날짜, 시간에 수거위치에 배출","음식물 쓰레기봉투를 사용하여 지정된 날짜, 시간에 수거위치에 배출",재활용품별로 모아서 지정된 장소와 시간에 배출,일+월+화+수+목+금,일+월+화+수+목+금,일+월+화+수+목+금,18:00,23:00,18:00,23:00,18:00,23:00,토,2022-10-18,2022-12-15
4211010000000 ,강원도,춘천시,소양로1가 105-31,1권역,소양로1가,혜원농장,37.89335036,127.72968680,"쓰레기봉투를 사용하여 지정된 날짜, 시간에 수거위치에 배출","음식물 쓰레기봉투를 사용하여 지정된 날짜, 시간에 수거위치에 배출",재활용품별로 모아서 지정된 장소와 시간에 배출,일+월+화+수+목+금,일+월+화+수+목+금,일+월+화+수+목+금,18:00,23:00,18:00,23:00,18:00,23:00,토,2022-10-18,2022-12-15
4211010000000 ,강원도,춘천시,소양로1가 107,1권역,소양로1가,그릇가게 봄이요,37.89326309,127.72848030,"쓰레기봉투를 사용하여 지정된 날짜, 시간에 수거위치에 배출","음식물 쓰레기봉투를 사용하여 지정된 날짜, 시간에 수거위치에 배출",재활용품별로 모아서 지정된 장소와 시간에 배출,일+월+화+수+목+금,일+월+화+수+목+금,일+월+화+수+목+금,18:00,23:00,18:00,23:00,18:00,23:00,토,2022-10-18,2022-12-15
4211010000000 ,강원도,춘천시,소양로1가 107,1권역,소양로1가,장군수산 건너편,37.89337771,127.72727030,"쓰레기봉투를 사용하여 지정된 날짜, 시간에 수거위치에 배출","음식물 쓰레기봉투를 사용하여 지정된 날짜, 시간에 수거위치에 배출",재활용품별로 모아서 지정된 장소와 시간에 배출,일+월+화+수+목+금,일+월+화+수+목+금,일+월+화+수+목+금,18:00,23:00,18:00,23:00,18:00,23:00,토,2022-10-18,2022-12-15
4211010000000 ,강원도,춘천시,소양로1가 107,1권역,소양로1가,소양로 1가 씨유,37.89233293,127.72647420,"쓰레기봉투를 사용하여 지정된 날짜, 시간에 수거위치에 배출","음식물 쓰레기봉투를 사용하여 지정된 날짜, 시간에 수거위치에 배출",재활용품별로 모아서 지정된 장소와 시간에 배출,일+월+화+수+목+금,일+월+화+수+목+금,일+월+화+수+목+금,18:00,23:00,18:00,23:00,18:00,23:00,토,2022-10-18,2022-12-15
4211010000000 ,강원도,춘천시,소양로1가 93-1,1권역,소양로1가,11번 상회,37.89220588,127.72641480,"쓰레기봉투를 사용하여 지정된 날짜, 시간에 수거위치에 배출","음식물 쓰레기봉투를 사용하여 지정된 날짜, 시간에 수거위치에 배출",재활용품별로 모아서 지정된 장소와 시간에 배출,일+월+화+수+목+금,일+월+화+수+목+금,일+월+화+수+목+금,18:00,23:00,18:00,23:00,18:00,23:00,토,2022-10-18,2022-12-15
4211010000000 ,강원도,춘천시,소양로1가 98-2,1권역,소양로1가,호반어린이집 앞 주택,37.89159153,127.72498270,"쓰레기봉투를 사용하여 지정된 날짜, 시간에 수거위치에 배출","음식물 쓰레기봉투를 사용하여 지정된 날짜, 시간에 수거위치에 배출",재활용품별로 모아서 지정된 장소와 시간에 배출,일+월+화+수+목+금,일+월+화+수+목+금,일+월+화+수+목+금,18:00,23:00,18:00,23:00,18:00,23:00,토,2022-10-18,2022-12-15
4211010000000 ,강원도,춘천시,소양로1가 97-1,1권역,소양로1가,소양로 163번길 51 주택,37.89114581,127.72506330,"쓰레기봉투를 사용하여 지정된 날짜, 시간에 수거위치에 배출","음식물 쓰레기봉투를 사용하여 지정된 날짜, 시간에 수거위치에 배출",재활용품별로 모아서 지정된 장소와 시간에 배출,일+월+화+수+목+금,일+월+화+수+목+금,일+월+화+수+목+금,18:00,23:00,18:00,23:00,18:00,23:00,토,2022-10-18,2022-12-15
4211010000000 ,강원도,춘천시,소양로2가 29-5,2권역,소양로2가,일보식당,37.88352560,127.72575760,"쓰레기봉투를 사용하여 지정된 날짜, 시간에 수거위치에 배출","음식물 쓰레기봉투를 사용하여 지정된 날짜, 시간에 수거위치에 배출",재활용품별로 모아서 지정된 장소와 시간에 배출,일+월+화+수+목+금,일+월+화+수+목+금,일+월+화+수+목+금,18:00,23:00,18:00,23:00,18:00,23:00,토,2022-08-18,2022-12-15
4211010000000 ,강원도,춘천시,요선동 19,2권역,요선동,한양 순두부,37.88483364,127.72912960,"쓰레기봉투를 사용하여 지정된 날짜, 시간에 수거위치에 배출","음식물 쓰레기봉투를 사용하여 지정된 날짜, 시간에 수거위치에 배출",재활용품별로 모아서 지정된 장소와 시간에 배출,일+월+화+수+목+금,일+월+화+수+목+금,일+월+화+수+목+금,18:00,23:00,18:00,23:00,18:00,23:00,토,2022-08-23,2022-12-15
4211010000000 ,강원도,춘천시,효자동 715,4권역,효자동,옹기종기,37.86988936,127.73092380,"쓰레기봉투를 사용하여 지정된 날짜, 시간에 수거위치에 배출","음식물 쓰레기봉투를 사용하여 지정된 날짜, 시간에 수거위치에 배출",재활용품별로 모아서 지정된 장소와 시간에 배출,일+월+화+수+목+금,일+월+화+수+목+금,일+월+화+수+목+금,18:00,23:00,18:00,23:00,18:00,23:00,토,2022-11-11,2022-12-15
4211010000000 ,강원도,춘천시,효자동 714,4권역,효자동,법무사차범익사무소,37.86641287,127.73326190,"쓰레기봉투를 사용하여 지정된 날짜, 시간에 수거위치에 배출","음식물 쓰레기봉투를 사용하여 지정된 날짜, 시간에 수거위치에 배출",재활용품별로 모아서 지정된 장소와 시간에 배출,일+월+화+수+목+금,일+월+화+수+목+금,일+월+화+수+목+금,18:00,23:00,18:00,23:00,18:00,23:00,토,2022-11-11,2022-12-15
4211010000000 ,강원도,춘천시,소양로4가 117,1권역,소양로4가,이슈네일 앞,37.87806663,127.72159710,"쓰레기봉투를 사용하여 지정된 날짜, 시간에 수거위치에 배출","음식물 쓰레기봉투를 사용하여 지정된 날짜, 시간에 수거위치에 배출",재활용품별로 모아서 지정된 장소와 시간에 배출,일+월+화+수+목+금,일+월+화+수+목+금,일+월+화+수+목+금,18:00,23:00,18:00,23:00,18:00,23:00,토,2022-08-17,2022-12-15
4211010000000 ,강원도,춘천시,근화동 707,1권역,근화동,청진동감자탕 앞,37.87529584,127.71801490,"쓰레기봉투를 사용하여 지정된 날짜, 시간에 수거위치에 배출","음식물 쓰레기봉투를 사용하여 지정된 날짜, 시간에 수거위치에 배출",재활용품별로 모아서 지정된 장소와 시간에 배출,일+월+화+수+목+금,일+월+화+수+목+금,일+월+화+수+목+금,18:00,23:00,18:00,23:00,18:00,23:00,토,2022-08-17,2022-12-15
4211010000000 ,강원도,춘천시,근화동 741-1,1권역,근화동,근화연립앞,37.88157713,127.71395750,"쓰레기봉투를 사용하여 지정된 날짜, 시간에 수거위치에 배출","음식물 쓰레기봉투를 사용하여 지정된 날짜, 시간에 수거위치에 배출",재활용품별로 모아서 지정된 장소와 시간에 배출,일+월+화+수+목+금,일+월+화+수+목+금,일+월+화+수+목+금,18:00,23:00,18:00,23:00,18:00,23:00,토,2022-08-17,2022-12-15
4211010000000 ,강원도,춘천시,근화동 789-1,1권역,근화동,호반아파트 앞 대로변,37.89023944,127.71917380,"쓰레기봉투를 사용하여 지정된 날짜, 시간에 수거위치에 배출","음식물 쓰레기봉투를 사용하여 지정된 날짜, 시간에 수거위치에 배출",재활용품별로 모아서 지정된 장소와 시간에 배출,일+월+화+수+목+금,일+월+화+수+목+금,일+월+화+수+목+금,18:00,23:00,18:00,23:00,18:00,23:00,토,2022-08-17,2022-12-15
4211010000000 ,강원도,춘천시,근화동 789-1,1권역,근화동,호반아파트 앞 대로변,37.89092680,127.71985090,"쓰레기봉투를 사용하여 지정된 날짜, 시간에 수거위치에 배출","음식물 쓰레기봉투를 사용하여 지정된 날짜, 시간에 수거위치에 배출",재활용품별로 모아서 지정된 장소와 시간에 배출,일+월+화+수+목+금,일+월+화+수+목+금,일+월+화+수+목+금,18:00,23:00,18:00,23:00,18:00,23:00,토,2022-08-17,2022-12-15
4211010000000 ,강원도,춘천시,근화동 715,1권역,근화동,근화이발관 앞,37.87389109,127.71850740,"쓰레기봉투를 사용하여 지정된 날짜, 시간에 수거위치에 배출","음식물 쓰레기봉투를 사용하여 지정된 날짜, 시간에 수거위치에 배출",재활용품별로 모아서 지정된 장소와 시간에 배출,일+월+화+수+목+금,일+월+화+수+목+금,일+월+화+수+목+금,18:00,23:00,18:00,23:00,18:00,23:00,토,2022-08-17,2022-12-15
4211010000000 ,강원도,춘천시,근화동 267,1권역,근화동,L타워 앞,37.87392151,127.71601120,"쓰레기봉투를 사용하여 지정된 날짜, 시간에 수거위치에 배출","음식물 쓰레기봉투를 사용하여 지정된 날짜, 시간에 수거위치에 배출",재활용품별로 모아서 지정된 장소와 시간에 배출,일+월+화+수+목+금,일+월+화+수+목+금,일+월+화+수+목+금,18:00,23:00,18:00,23:00,18:00,23:00,토,2022-08-17,2022-12-15
4211010000000 ,강원도,춘천시,근화동 19-6,1권역,근화동,우성자원 환경계량,37.89105649,127.71996450,"쓰레기봉투를 사용하여 지정된 날짜, 시간에 수거위치에 배출","음식물 쓰레기봉투를 사용하여 지정된 날짜, 시간에 수거위치에 배출",재활용품별로 모아서 지정된 장소와 시간에 배출,일+월+화+수+목+금,일+월+화+수+목+금,일+월+화+수+목+금,18:00,23:00,18:00,23:00,18:00,23:00,토,2022-10-18,2022-12-15
4211010000000 ,강원도,춘천시,근화동 789-1,1권역,근화동,호반아파트 공원,37.89028011,127.71919370,"쓰레기봉투를 사용하여 지정된 날짜, 시간에 수거위치에 배출","음식물 쓰레기봉투를 사용하여 지정된 날짜, 시간에 수거위치에 배출",재활용품별로 모아서 지정된 장소와 시간에 배출,일+월+화+수+목+금,일+월+화+수+목+금,일+월+화+수+목+금,18:00,23:00,18:00,23:00,18:00,23:00,토,2022-10-18,2022-12-15
4211010000000 ,강원도,춘천시,근화동 803,1권역,근화동,고맙소빌라,37.89177737,127.72123210,"쓰레기봉투를 사용하여 지정된 날짜, 시간에 수거위치에 배출","음식물 쓰레기봉투를 사용하여 지정된 날짜, 시간에 수거위치에 배출",재활용품별로 모아서 지정된 장소와 시간에 배출,일+월+화+수+목+금,일+월+화+수+목+금,일+월+화+수+목+금,18:00,23:00,18:00,23:00,18:00,23:00,토,2022-10-18,2022-12-15
4211010000000 ,강원도,춘천시,근화동 756,1권역,근화동,강원일보 앞,37.87501672,127.71703530,"쓰레기봉투를 사용하여 지정된 날짜, 시간에 수거위치에 배출","음식물 쓰레기봉투를 사용하여 지정된 날짜, 시간에 수거위치에 배출",재활용품별로 모아서 지정된 장소와 시간에 배출,일+월+화+수+목+금,일+월+화+수+목+금,일+월+화+수+목+금,18:00,23:00,18:00,23:00,18:00,23:00,토,2022-08-17,2022-12-15
4211010000000 ,강원도,춘천시,근화동 467-31,1권역,근화동,경동자동차정비 앞,37.87752256,127.71573830,"쓰레기봉투를 사용하여 지정된 날짜, 시간에 수거위치에 배출","음식물 쓰레기봉투를 사용하여 지정된 날짜, 시간에 수거위치에 배출",재활용품별로 모아서 지정된 장소와 시간에 배출,일+월+화+수+목+금,일+월+화+수+목+금,일+월+화+수+목+금,18:00,23:00,18:00,23:00,18:00,23:00,토,2022-08-18,2022-12-15
4211010000000 ,강원도,춘천시,근화동 803,2권역,근화동,은아기사식당 옆,37.89215329,127.72230760,"쓰레기봉투를 사용하여 지정된 날짜, 시간에 수거위치에 배출","음식물 쓰레기봉투를 사용하여 지정된 날짜, 시간에 수거위치에 배출",재활용품별로 모아서 지정된 장소와 시간에 배출,일+월+화+수+목+금,일+월+화+수+목+금,일+월+화+수+목+금,18:00,23:00,18:00,23:00,18:00,23:00,토,2022-08-18,2022-12-15
4211010000000 ,강원도,춘천시,근화동 799-16,1권역,근화동,소양로 211번길 20-1,37.89161149,127.72391320,"쓰레기봉투를 사용하여 지정된 날짜, 시간에 수거위치에 배출","음식물 쓰레기봉투를 사용하여 지정된 날짜, 시간에 수거위치에 배출",재활용품별로 모아서 지정된 장소와 시간에 배출,일+월+화+수+목+금,일+월+화+수+목+금,일+월+화+수+목+금,18:00,23:00,18:00,23:00,18:00,23:00,토,2022-10-18,2022-12-15
4211010000000 ,강원도,춘천시,근화동 796-42,1권역,근화동,천지사 건너편,37.89242591,127.72429360,"쓰레기봉투를 사용하여 지정된 날짜, 시간에 수거위치에 배출","음식물 쓰레기봉투를 사용하여 지정된 날짜, 시간에 수거위치에 배출",재활용품별로 모아서 지정된 장소와 시간에 배출,일+월+화+수+목+금,일+월+화+수+목+금,일+월+화+수+목+금,18:00,23:00,18:00,23:00,18:00,23:00,토,2022-10-18,2022-12-15
4211010000000 ,강원도,춘천시,운교동 197,4권역,운교동,동방기업 건너편 주차장,37.87448190,127.73225950,"쓰레기봉투를 사용하여 지정된 날짜, 시간에 수거위치에 배출","음식물 쓰레기봉투를 사용하여 지정된 날짜, 시간에 수거위치에 배출",재활용품별로 모아서 지정된 장소와 시간에 배출,일+월+화+수+목+금,일+월+화+수+목+금,일+월+화+수+목+금,18:00,23:00,18:00,23:00,18:00,23:00,토,2022-09-02,2022-12-15
4211010000000 ,강원도,춘천시,우두동 1121,1권역,우두동,황대박 숯불구이,37.90889602,127.73235230,"쓰레기봉투를 사용하여 지정된 날짜, 시간에 수거위치에 배출","음식물 쓰레기봉투를 사용하여 지정된 날짜, 시간에 수거위치에 배출",재활용품별로 모아서 지정된 장소와 시간에 배출,일+월+화+수+목+금,일+월+화+수+목+금,일+월+화+수+목+금,18:00,23:00,18:00,23:00,18:00,23:00,토,2022-09-22,2022-12-15
4211010000000 ,강원도,춘천시,우두동 1121,1권역,우두동,황대박 숯불구이,37.90901367,127.73235240,"쓰레기봉투를 사용하여 지정된 날짜, 시간에 수거위치에 배출","음식물 쓰레기봉투를 사용하여 지정된 날짜, 시간에 수거위치에 배출",재활용품별로 모아서 지정된 장소와 시간에 배출,일+월+화+수+목+금,일+월+화+수+목+금,일+월+화+수+목+금,18:00,23:00,18:00,23:00,18:00,23:00,토,2022-09-22,2022-12-15
4211010000000 ,강원도,춘천시,우두동 150-7,1권역,우두동,Khit샌드위치,37.91092112,127.73940690,"쓰레기봉투를 사용하여 지정된 날짜, 시간에 수거위치에 배출","음식물 쓰레기봉투를 사용하여 지정된 날짜, 시간에 수거위치에 배출",재활용품별로 모아서 지정된 장소와 시간에 배출,일+월+화+수+목+금,일+월+화+수+목+금,일+월+화+수+목+금,18:00,23:00,18:00,23:00,18:00,23:00,토,2022-09-22,2022-12-15
4211010000000 ,강원도,춘천시,우두동 124,1권역,우두동,한국폴리텍앞,37.91298961,127.74208430,"쓰레기봉투를 사용하여 지정된 날짜, 시간에 수거위치에 배출","음식물 쓰레기봉투를 사용하여 지정된 날짜, 시간에 수거위치에 배출",재활용품별로 모아서 지정된 장소와 시간에 배출,일+월+화+수+목+금,일+월+화+수+목+금,일+월+화+수+목+금,18:00,23:00,18:00,23:00,18:00,23:00,토,2022-09-22,2022-12-15
4211010000000 ,강원도,춘천시,우두동 761-11,1권역,우두동,도로교통공단,37.90338699,127.72704530,"쓰레기봉투를 사용하여 지정된 날짜, 시간에 수거위치에 배출","음식물 쓰레기봉투를 사용하여 지정된 날짜, 시간에 수거위치에 배출",재활용품별로 모아서 지정된 장소와 시간에 배출,일+월+화+수+목+금,일+월+화+수+목+금,일+월+화+수+목+금,18:00,23:00,18:00,23:00,18:00,23:00,토,2022-09-23,2022-12-15
4211010000000 ,강원도,춘천시,우두동 759-35,1권역,우두동,성대수산,37.90288041,127.72753850,"쓰레기봉투를 사용하여 지정된 날짜, 시간에 수거위치에 배출","음식물 쓰레기봉투를 사용하여 지정된 날짜, 시간에 수거위치에 배출",재활용품별로 모아서 지정된 장소와 시간에 배출,일+월+화+수+목+금,일+월+화+수+목+금,일+월+화+수+목+금,18:00,23:00,18:00,23:00,18:00,23:00,토,2022-09-23,2022-12-15
4211010000000 ,강원도,춘천시,우두동 691-31,1권역,우두동,땅스부대찌개,37.90196898,127.72841120,"쓰레기봉투를 사용하여 지정된 날짜, 시간에 수거위치에 배출","음식물 쓰레기봉투를 사용하여 지정된 날짜, 시간에 수거위치에 배출",재활용품별로 모아서 지정된 장소와 시간에 배출,일+월+화+수+목+금,일+월+화+수+목+금,일+월+화+수+목+금,18:00,23:00,18:00,23:00,18:00,23:00,토,2022-09-23,2022-12-15
4211010000000 ,강원도,춘천시,우두동 688-16,1권역,우두동,낙원약국 건너편,37.90146387,127.72888650,"쓰레기봉투를 사용하여 지정된 날짜, 시간에 수거위치에 배출","음식물 쓰레기봉투를 사용하여 지정된 날짜, 시간에 수거위치에 배출",재활용품별로 모아서 지정된 장소와 시간에 배출,일+월+화+수+목+금,일+월+화+수+목+금,일+월+화+수+목+금,18:00,23:00,18:00,23:00,18:00,23:00,토,2022-09-23,2022-12-15
4211010000000 ,강원도,춘천시,우두동 698-22,1권역,우두동,투다리,37.90008726,127.72993640,"쓰레기봉투를 사용하여 지정된 날짜, 시간에 수거위치에 배출","음식물 쓰레기봉투를 사용하여 지정된 날짜, 시간에 수거위치에 배출",재활용품별로 모아서 지정된 장소와 시간에 배출,일+월+화+수+목+금,일+월+화+수+목+금,일+월+화+수+목+금,18:00,23:00,18:00,23:00,18:00,23:00,토,2022-09-23,2022-12-15
4211010000000 ,강원도,춘천시,우두동 1064-1,1권역,우두동,상록공원 안,37.89978631,127.72958150,"쓰레기봉투를 사용하여 지정된 날짜, 시간에 수거위치에 배출","음식물 쓰레기봉투를 사용하여 지정된 날짜, 시간에 수거위치에 배출",재활용품별로 모아서 지정된 장소와 시간에 배출,일+월+화+수+목+금,일+월+화+수+목+금,일+월+화+수+목+금,18:00,23:00,18:00,23:00,18:00,23:00,토,2022-09-23,2022-12-15
4211010000000 ,강원도,춘천시,우두동 1072,1권역,우두동,상록공원 앞,37.89945818,127.72975540,"쓰레기봉투를 사용하여 지정된 날짜, 시간에 수거위치에 배출","음식물 쓰레기봉투를 사용하여 지정된 날짜, 시간에 수거위치에 배출",재활용품별로 모아서 지정된 장소와 시간에 배출,일+월+화+수+목+금,일+월+화+수+목+금,일+월+화+수+목+금,18:00,23:00,18:00,23:00,18:00,23:00,토,2022-09-23,2022-12-15
4211010000000 ,강원도,춘천시,우두동 1072,1권역,우두동,순이네 닭볶음탕,37.89965371,127.72902970,"쓰레기봉투를 사용하여 지정된 날짜, 시간에 수거위치에 배출","음식물 쓰레기봉투를 사용하여 지정된 날짜, 시간에 수거위치에 배출",재활용품별로 모아서 지정된 장소와 시간에 배출,일+월+화+수+목+금,일+월+화+수+목+금,일+월+화+수+목+금,18:00,23:00,18:00,23:00,18:00,23:00,토,2022-09-23,2022-12-15
4211010000000 ,강원도,춘천시,우두동 1071,1권역,우두동,카페화,37.89876524,127.73008520,"쓰레기봉투를 사용하여 지정된 날짜, 시간에 수거위치에 배출","음식물 쓰레기봉투를 사용하여 지정된 날짜, 시간에 수거위치에 배출",재활용품별로 모아서 지정된 장소와 시간에 배출,일+월+화+수+목+금,일+월+화+수+목+금,일+월+화+수+목+금,18:00,23:00,18:00,23:00,18:00,23:00,토,2022-09-23,2022-12-15
4211010000000 ,강원도,춘천시,우두동 1062-10,1권역,우두동,사우진미닭갈비,37.89872586,127.72982190,"쓰레기봉투를 사용하여 지정된 날짜, 시간에 수거위치에 배출","음식물 쓰레기봉투를 사용하여 지정된 날짜, 시간에 수거위치에 배출",재활용품별로 모아서 지정된 장소와 시간에 배출,일+월+화+수+목+금,일+월+화+수+목+금,일+월+화+수+목+금,18:00,23:00,18:00,23:00,18:00,23:00,토,2022-09-23,2022-12-15
4211010000000 ,강원도,춘천시,우두동 1070,1권역,우두동,신마구로,37.89866941,127.72975730,"쓰레기봉투를 사용하여 지정된 날짜, 시간에 수거위치에 배출","음식물 쓰레기봉투를 사용하여 지정된 날짜, 시간에 수거위치에 배출",재활용품별로 모아서 지정된 장소와 시간에 배출,일+월+화+수+목+금,일+월+화+수+목+금,일+월+화+수+목+금,18:00,23:00,18:00,23:00,18:00,23:00,토,2022-09-23,2022-12-15
4211010000000 ,강원도,춘천시,옥천동 46,2권역,옥천동,보영이네해물칼국수 옆,37.88328630,127.72958470,"쓰레기봉투를 사용하여 지정된 날짜, 시간에 수거위치에 배출","음식물 쓰레기봉투를 사용하여 지정된 날짜, 시간에 수거위치에 배출",재활용품별로 모아서 지정된 장소와 시간에 배출,일+월+화+수+목+금,일+월+화+수+목+금,일+월+화+수+목+금,18:00,23:00,18:00,23:00,18:00,23:00,토,2022-10-20,2022-12-15
4211010000000 ,강원도,춘천시,우두동 1062-12,1권역,우두동,회장,37.89877819,127.72954740,"쓰레기봉투를 사용하여 지정된 날짜, 시간에 수거위치에 배출","음식물 쓰레기봉투를 사용하여 지정된 날짜, 시간에 수거위치에 배출",재활용품별로 모아서 지정된 장소와 시간에 배출,일+월+화+수+목+금,일+월+화+수+목+금,일+월+화+수+목+금,18:00,23:00,18:00,23:00,18:00,23:00,토,2022-09-23,2022-12-15
4211010000000 ,강원도,춘천시,우두동 1070,1권역,우두동,아띠 미니족발,37.89880313,127.72912350,"쓰레기봉투를 사용하여 지정된 날짜, 시간에 수거위치에 배출","음식물 쓰레기봉투를 사용하여 지정된 날짜, 시간에 수거위치에 배출",재활용품별로 모아서 지정된 장소와 시간에 배출,일+월+화+수+목+금,일+월+화+수+목+금,일+월+화+수+목+금,18:00,23:00,18:00,23:00,18:00,23:00,토,2022-09-23,2022-12-15
4211010000000 ,강원도,춘천시,우두동 370-1,1권역,우두동,충열로48번길 57-11,37.89882161,127.73932630,"쓰레기봉투를 사용하여 지정된 날짜, 시간에 수거위치에 배출","음식물 쓰레기봉투를 사용하여 지정된 날짜, 시간에 수거위치에 배출",재활용품별로 모아서 지정된 장소와 시간에 배출,일+월+화+수+목+금,일+월+화+수+목+금,일+월+화+수+목+금,18:00,23:00,18:00,23:00,18:00,23:00,토,2022-09-23,2022-12-15
4211010000000 ,강원도,춘천시,우두동 339-13,1권역,우두동,새청공원 건너편,37.89787006,127.73886270,"쓰레기봉투를 사용하여 지정된 날짜, 시간에 수거위치에 배출","음식물 쓰레기봉투를 사용하여 지정된 날짜, 시간에 수거위치에 배출",재활용품별로 모아서 지정된 장소와 시간에 배출,일+월+화+수+목+금,일+월+화+수+목+금,일+월+화+수+목+금,18:00,23:00,18:00,23:00,18:00,23:00,토,2022-09-23,2022-12-15
4211010000000 ,강원도,춘천시,우두동 339-13,1권역,우두동,우두빌딩 옆,37.89799606,127.73789240,"쓰레기봉투를 사용하여 지정된 날짜, 시간에 수거위치에 배출","음식물 쓰레기봉투를 사용하여 지정된 날짜, 시간에 수거위치에 배출",재활용품별로 모아서 지정된 장소와 시간에 배출,일+월+화+수+목+금,일+월+화+수+목+금,일+월+화+수+목+금,18:00,23:00,18:00,23:00,18:00,23:00,토,2022-09-23,2022-12-15
4211010000000 ,강원도,춘천시,우두동 379-2,1권역,우두동,강변코이루A 정류장 ,37.89821985,127.73691740,"쓰레기봉투를 사용하여 지정된 날짜, 시간에 수거위치에 배출","음식물 쓰레기봉투를 사용하여 지정된 날짜, 시간에 수거위치에 배출",재활용품별로 모아서 지정된 장소와 시간에 배출,일+월+화+수+목+금,일+월+화+수+목+금,일+월+화+수+목+금,18:00,23:00,18:00,23:00,18:00,23:00,토,2022-09-23,2022-12-15
4211010000000 ,강원도,춘천시,우두동 410-24,1권역,우두동,안명숙헤어샵,37.89989727,127.73497380,"쓰레기봉투를 사용하여 지정된 날짜, 시간에 수거위치에 배출","음식물 쓰레기봉투를 사용하여 지정된 날짜, 시간에 수거위치에 배출",재활용품별로 모아서 지정된 장소와 시간에 배출,일+월+화+수+목+금,일+월+화+수+목+금,일+월+화+수+목+금,18:00,23:00,18:00,23:00,18:00,23:00,토,2022-09-23,2022-12-15
4211010000000 ,강원도,춘천시,우두동 410-23,1권역,우두동,농협도소매센터,37.90026254,127.73530760,"쓰레기봉투를 사용하여 지정된 날짜, 시간에 수거위치에 배출","음식물 쓰레기봉투를 사용하여 지정된 날짜, 시간에 수거위치에 배출",재활용품별로 모아서 지정된 장소와 시간에 배출,일+월+화+수+목+금,일+월+화+수+목+금,일+월+화+수+목+금,18:00,23:00,18:00,23:00,18:00,23:00,토,2022-09-23,2022-12-15
4211010000000 ,강원도,춘천시,우두동 410-67,1권역,우두동,농업인단체회관,37.90159660,127.73653790,"쓰레기봉투를 사용하여 지정된 날짜, 시간에 수거위치에 배출","음식물 쓰레기봉투를 사용하여 지정된 날짜, 시간에 수거위치에 배출",재활용품별로 모아서 지정된 장소와 시간에 배출,일+월+화+수+목+금,일+월+화+수+목+금,일+월+화+수+목+금,18:00,23:00,18:00,23:00,18:00,23:00,토,2022-09-23,2022-12-15
4211010000000 ,강원도,춘천시,우두동 289-22,1권역,우두동,강원도재활병원 담벼락 건너편,37.90297123,127.74191020,"쓰레기봉투를 사용하여 지정된 날짜, 시간에 수거위치에 배출","음식물 쓰레기봉투를 사용하여 지정된 날짜, 시간에 수거위치에 배출",재활용품별로 모아서 지정된 장소와 시간에 배출,일+월+화+수+목+금,일+월+화+수+목+금,일+월+화+수+목+금,18:00,23:00,18:00,23:00,18:00,23:00,토,2022-09-23,2022-12-15
4211010000000 ,강원도,춘천시,우두동 291-5,1권역,우두동,재활병원 어린이공원 앞,37.90434638,127.74193380,"쓰레기봉투를 사용하여 지정된 날짜, 시간에 수거위치에 배출","음식물 쓰레기봉투를 사용하여 지정된 날짜, 시간에 수거위치에 배출",재활용품별로 모아서 지정된 장소와 시간에 배출,일+월+화+수+목+금,일+월+화+수+목+금,일+월+화+수+목+금,18:00,23:00,18:00,23:00,18:00,23:00,토,2022-09-23,2022-12-15
4211010000000 ,강원도,춘천시,우두동 699-2,1권역,우두동,어울림,37.90027952,127.72978930,"쓰레기봉투를 사용하여 지정된 날짜, 시간에 수거위치에 배출","음식물 쓰레기봉투를 사용하여 지정된 날짜, 시간에 수거위치에 배출",재활용품별로 모아서 지정된 장소와 시간에 배출,일+월+화+수+목+금,일+월+화+수+목+금,일+월+화+수+목+금,18:00,23:00,18:00,23:00,18:00,23:00,토,2022-11-04,2022-12-15
4211010000000 ,강원도,춘천시,우두동 1055,1권역,우두동,우두동 cu,37.90080944,127.72716840,"쓰레기봉투를 사용하여 지정된 날짜, 시간에 수거위치에 배출","음식물 쓰레기봉투를 사용하여 지정된 날짜, 시간에 수거위치에 배출",재활용품별로 모아서 지정된 장소와 시간에 배출,일+월+화+수+목+금,일+월+화+수+목+금,일+월+화+수+목+금,18:00,23:00,18:00,23:00,18:00,23:00,토,2022-11-04,2022-12-15
4211010000000 ,강원도,춘천시,우두동 1055-4,1권역,우두동,quad주차장 앞,37.90048265,127.72684630,"쓰레기봉투를 사용하여 지정된 날짜, 시간에 수거위치에 배출","음식물 쓰레기봉투를 사용하여 지정된 날짜, 시간에 수거위치에 배출",재활용품별로 모아서 지정된 장소와 시간에 배출,일+월+화+수+목+금,일+월+화+수+목+금,일+월+화+수+목+금,18:00,23:00,18:00,23:00,18:00,23:00,토,2022-11-04,2022-12-15
4211010000000 ,강원도,춘천시,우두동 1052-25,1권역,우두동,남선식당,37.90019487,127.72799960,"쓰레기봉투를 사용하여 지정된 날짜, 시간에 수거위치에 배출","음식물 쓰레기봉투를 사용하여 지정된 날짜, 시간에 수거위치에 배출",재활용품별로 모아서 지정된 장소와 시간에 배출,일+월+화+수+목+금,일+월+화+수+목+금,일+월+화+수+목+금,18:00,23:00,18:00,23:00,18:00,23:00,토,2022-11-04,2022-12-15
4211010000000 ,강원도,춘천시,효자동 44-57,2권역,효자동,순복음비전교회,37.87652114,127.74226040,"쓰레기봉투를 사용하여 지정된 날짜, 시간에 수거위치에 배출","음식물 쓰레기봉투를 사용하여 지정된 날짜, 시간에 수거위치에 배출",재활용품별로 모아서 지정된 장소와 시간에 배출,일+월+화+수+목+금,일+월+화+수+목+금,일+월+화+수+목+금,18:00,23:00,18:00,23:00,18:00,23:00,토,2022-09-03,2022-12-15
4211010000000 ,강원도,춘천시,우두동 685-4,1권역,우두동,복건성 건너편,37.90226399,127.73066510,"쓰레기봉투를 사용하여 지정된 날짜, 시간에 수거위치에 배출","음식물 쓰레기봉투를 사용하여 지정된 날짜, 시간에 수거위치에 배출",재활용품별로 모아서 지정된 장소와 시간에 배출,일+월+화+수+목+금,일+월+화+수+목+금,일+월+화+수+목+금,18:00,23:00,18:00,23:00,18:00,23:00,토,2022-11-04,2022-12-15
4211010000000 ,강원도,춘천시,우두동 688-16,1권역,우두동,김경수 치과의원,37.90122373,127.72936640,"쓰레기봉투를 사용하여 지정된 날짜, 시간에 수거위치에 배출","음식물 쓰레기봉투를 사용하여 지정된 날짜, 시간에 수거위치에 배출",재활용품별로 모아서 지정된 장소와 시간에 배출,일+월+화+수+목+금,일+월+화+수+목+금,일+월+화+수+목+금,18:00,23:00,18:00,23:00,18:00,23:00,토,2022-11-04,2022-12-15
4211010000000 ,강원도,춘천시,우두동 692-5,1권역,우두동,다사랑 의원,37.90133195,127.72863250,"쓰레기봉투를 사용하여 지정된 날짜, 시간에 수거위치에 배출","음식물 쓰레기봉투를 사용하여 지정된 날짜, 시간에 수거위치에 배출",재활용품별로 모아서 지정된 장소와 시간에 배출,일+월+화+수+목+금,일+월+화+수+목+금,일+월+화+수+목+금,18:00,23:00,18:00,23:00,18:00,23:00,토,2022-11-04,2022-12-15
4211010000000 ,강원도,춘천시,우두동 1074,1권역,우두동,신사우동 우체국,37.90052213,127.72852340,"쓰레기봉투를 사용하여 지정된 날짜, 시간에 수거위치에 배출","음식물 쓰레기봉투를 사용하여 지정된 날짜, 시간에 수거위치에 배출",재활용품별로 모아서 지정된 장소와 시간에 배출,일+월+화+수+목+금,일+월+화+수+목+금,일+월+화+수+목+금,18:00,23:00,18:00,23:00,18:00,23:00,토,2022-11-04,2022-12-15
4211010000000 ,강원도,춘천시,우두동 1074,1권역,우두동,김밥나라,37.89993144,127.72841260,"쓰레기봉투를 사용하여 지정된 날짜, 시간에 수거위치에 배출","음식물 쓰레기봉투를 사용하여 지정된 날짜, 시간에 수거위치에 배출",재활용품별로 모아서 지정된 장소와 시간에 배출,일+월+화+수+목+금,일+월+화+수+목+금,일+월+화+수+목+금,18:00,23:00,18:00,23:00,18:00,23:00,토,2022-11-04,2022-12-15
4211010000000 ,강원도,춘천시,우두동 1074,1권역,우두동,자갈치마당,37.89946205,127.72825800,"쓰레기봉투를 사용하여 지정된 날짜, 시간에 수거위치에 배출","음식물 쓰레기봉투를 사용하여 지정된 날짜, 시간에 수거위치에 배출",재활용품별로 모아서 지정된 장소와 시간에 배출,일+월+화+수+목+금,일+월+화+수+목+금,일+월+화+수+목+금,18:00,23:00,18:00,23:00,18:00,23:00,토,2022-11-04,2022-12-15
4211010000000 ,강원도,춘천시,우두동 1074,1권역,우두동,돈치킨,37.89900259,127.72845520,"쓰레기봉투를 사용하여 지정된 날짜, 시간에 수거위치에 배출","음식물 쓰레기봉투를 사용하여 지정된 날짜, 시간에 수거위치에 배출",재활용품별로 모아서 지정된 장소와 시간에 배출,일+월+화+수+목+금,일+월+화+수+목+금,일+월+화+수+목+금,18:00,23:00,18:00,23:00,18:00,23:00,토,2022-11-04,2022-12-15
4211010000000 ,강원도,춘천시,우두동 1074,1권역,우두동,미래성,37.89926884,127.72849850,"쓰레기봉투를 사용하여 지정된 날짜, 시간에 수거위치에 배출","음식물 쓰레기봉투를 사용하여 지정된 날짜, 시간에 수거위치에 배출",재활용품별로 모아서 지정된 장소와 시간에 배출,일+월+화+수+목+금,일+월+화+수+목+금,일+월+화+수+목+금,18:00,23:00,18:00,23:00,18:00,23:00,토,2022-11-04,2022-12-15
4211010000000 ,강원도,춘천시,우두동 1072,1권역,우두동,충열로 16번길 13-8,37.89947806,127.72969870,"쓰레기봉투를 사용하여 지정된 날짜, 시간에 수거위치에 배출","음식물 쓰레기봉투를 사용하여 지정된 날짜, 시간에 수거위치에 배출",재활용품별로 모아서 지정된 장소와 시간에 배출,일+월+화+수+목+금,일+월+화+수+목+금,일+월+화+수+목+금,18:00,23:00,18:00,23:00,18:00,23:00,토,2022-11-04,2022-12-15
4211010000000 ,강원도,춘천시,후평동 890,3권역,후평동,호반공원 입구,37.87463978,127.75879560,"쓰레기봉투를 사용하여 지정된 날짜, 시간에 수거위치에 배출","음식물 쓰레기봉투를 사용하여 지정된 날짜, 시간에 수거위치에 배출",재활용품별로 모아서 지정된 장소와 시간에 배출,일+월+화+수+목+금,일+월+화+수+목+금,일+월+화+수+목+금,18:00,23:00,18:00,23:00,18:00,23:00,토,2022-08-21,2022-12-15
4211010000000 ,강원도,춘천시,후평동 889,3권역,후평동,살루드카페앞,37.87681357,127.75781460,"쓰레기봉투를 사용하여 지정된 날짜, 시간에 수거위치에 배출","음식물 쓰레기봉투를 사용하여 지정된 날짜, 시간에 수거위치에 배출",재활용품별로 모아서 지정된 장소와 시간에 배출,일+월+화+수+목+금,일+월+화+수+목+금,일+월+화+수+목+금,18:00,23:00,18:00,23:00,18:00,23:00,토,2022-08-21,2022-12-15
4211010000000 ,강원도,춘천시,후평동 876-10,3권역,후평동,워낭 옆 주차장 ,37.87557127,127.75800770,"쓰레기봉투를 사용하여 지정된 날짜, 시간에 수거위치에 배출","음식물 쓰레기봉투를 사용하여 지정된 날짜, 시간에 수거위치에 배출",재활용품별로 모아서 지정된 장소와 시간에 배출,일+월+화+수+목+금,일+월+화+수+목+금,일+월+화+수+목+금,18:00,23:00,18:00,23:00,18:00,23:00,토,2022-08-21,2022-12-15
4211010000000 ,강원도,춘천시,후평동 887,3권역,후평동,화평교회앞,37.87477814,127.75790110,"쓰레기봉투를 사용하여 지정된 날짜, 시간에 수거위치에 배출","음식물 쓰레기봉투를 사용하여 지정된 날짜, 시간에 수거위치에 배출",재활용품별로 모아서 지정된 장소와 시간에 배출,일+월+화+수+목+금,일+월+화+수+목+금,일+월+화+수+목+금,18:00,23:00,18:00,23:00,18:00,23:00,토,2022-08-21,2022-12-15
4211010000000 ,강원도,춘천시,후평동 809,3권역,후평동,크린토피아4단지점앞,37.87454338,127.75615480,"쓰레기봉투를 사용하여 지정된 날짜, 시간에 수거위치에 배출","음식물 쓰레기봉투를 사용하여 지정된 날짜, 시간에 수거위치에 배출",재활용품별로 모아서 지정된 장소와 시간에 배출,일+월+화+수+목+금,일+월+화+수+목+금,일+월+화+수+목+금,18:00,23:00,18:00,23:00,18:00,23:00,토,2022-08-21,2022-12-15
4211010000000 ,강원도,춘천시,후평동 841,3권역,후평동,커피베이 건너편,37.87627096,127.75421510,"쓰레기봉투를 사용하여 지정된 날짜, 시간에 수거위치에 배출","음식물 쓰레기봉투를 사용하여 지정된 날짜, 시간에 수거위치에 배출",재활용품별로 모아서 지정된 장소와 시간에 배출,일+월+화+수+목+금,일+월+화+수+목+금,일+월+화+수+목+금,18:00,23:00,18:00,23:00,18:00,23:00,토,2022-08-21,2022-12-15
4211010000000 ,강원도,춘천시,후평동 826,3권역,후평동,한길교회 앞,37.87560748,127.75426930,"쓰레기봉투를 사용하여 지정된 날짜, 시간에 수거위치에 배출","음식물 쓰레기봉투를 사용하여 지정된 날짜, 시간에 수거위치에 배출",재활용품별로 모아서 지정된 장소와 시간에 배출,일+월+화+수+목+금,일+월+화+수+목+금,일+월+화+수+목+금,18:00,23:00,18:00,23:00,18:00,23:00,토,2022-08-21,2022-12-15
4211010000000 ,강원도,춘천시,후평동 841,3권역,후평동,계단 전,37.87560646,127.75306720,"쓰레기봉투를 사용하여 지정된 날짜, 시간에 수거위치에 배출","음식물 쓰레기봉투를 사용하여 지정된 날짜, 시간에 수거위치에 배출",재활용품별로 모아서 지정된 장소와 시간에 배출,일+월+화+수+목+금,일+월+화+수+목+금,일+월+화+수+목+금,18:00,23:00,18:00,23:00,18:00,23:00,토,2022-08-21,2022-12-15
4211010000000 ,강원도,춘천시,후평동 819-10,3권역,후평동,복골길14번길16,37.87500055,127.75496280,"쓰레기봉투를 사용하여 지정된 날짜, 시간에 수거위치에 배출","음식물 쓰레기봉투를 사용하여 지정된 날짜, 시간에 수거위치에 배출",재활용품별로 모아서 지정된 장소와 시간에 배출,일+월+화+수+목+금,일+월+화+수+목+금,일+월+화+수+목+금,18:00,23:00,18:00,23:00,18:00,23:00,토,2022-08-21,2022-12-15
4211010000000 ,강원도,춘천시,효자동 250-110,4권역,효자동,가로등 166-10,37.86370872,127.73435580,"쓰레기봉투를 사용하여 지정된 날짜, 시간에 수거위치에 배출","음식물 쓰레기봉투를 사용하여 지정된 날짜, 시간에 수거위치에 배출",재활용품별로 모아서 지정된 장소와 시간에 배출,일+월+화+수+목+금,일+월+화+수+목+금,일+월+화+수+목+금,18:00,23:00,18:00,23:00,18:00,23:00,토,2022-11-07,2022-12-15
4211010000000 ,강원도,춘천시,사농동 99-24,1권역,사농동,소양강푸드시스템,37.90449502,127.72714950,"쓰레기봉투를 사용하여 지정된 날짜, 시간에 수거위치에 배출","음식물 쓰레기봉투를 사용하여 지정된 날짜, 시간에 수거위치에 배출",재활용품별로 모아서 지정된 장소와 시간에 배출,일+월+화+수+목+금,일+월+화+수+목+금,일+월+화+수+목+금,18:00,23:00,18:00,23:00,18:00,23:00,토,2022-09-23,2022-12-15
4211010000000 ,강원도,춘천시,사농동 475-7,1권역,사농동,제일에어컨뒤 산책로,37.90515707,127.72214770,"쓰레기봉투를 사용하여 지정된 날짜, 시간에 수거위치에 배출","음식물 쓰레기봉투를 사용하여 지정된 날짜, 시간에 수거위치에 배출",재활용품별로 모아서 지정된 장소와 시간에 배출,일+월+화+수+목+금,일+월+화+수+목+금,일+월+화+수+목+금,18:00,23:00,18:00,23:00,18:00,23:00,토,2022-09-23,2022-12-15
4211010000000 ,강원도,춘천시,후평동 900,3권역,후평동,sk주유소 앞,37.87276090,127.75250510,"쓰레기봉투를 사용하여 지정된 날짜, 시간에 수거위치에 배출","음식물 쓰레기봉투를 사용하여 지정된 날짜, 시간에 수거위치에 배출",재활용품별로 모아서 지정된 장소와 시간에 배출,일+월+화+수+목+금,일+월+화+수+목+금,일+월+화+수+목+금,18:00,23:00,18:00,23:00,18:00,23:00,토,2022-08-21,2022-12-15
4211010000000 ,강원도,춘천시,후평동 900,3권역,후평동,농협 앞,37.87350264,127.75250690,"쓰레기봉투를 사용하여 지정된 날짜, 시간에 수거위치에 배출","음식물 쓰레기봉투를 사용하여 지정된 날짜, 시간에 수거위치에 배출",재활용품별로 모아서 지정된 장소와 시간에 배출,일+월+화+수+목+금,일+월+화+수+목+금,일+월+화+수+목+금,18:00,23:00,18:00,23:00,18:00,23:00,토,2022-08-21,2022-12-15
4211010000000 ,강원도,춘천시,후평동 841,3권역,후평동,림스치킨 앞,37.87393477,127.75252620,"쓰레기봉투를 사용하여 지정된 날짜, 시간에 수거위치에 배출","음식물 쓰레기봉투를 사용하여 지정된 날짜, 시간에 수거위치에 배출",재활용품별로 모아서 지정된 장소와 시간에 배출,일+월+화+수+목+금,일+월+화+수+목+금,일+월+화+수+목+금,18:00,23:00,18:00,23:00,18:00,23:00,토,2022-08-21,2022-12-15
4211010000000 ,강원도,춘천시,후평동 841,3권역,후평동,대게생각앞,37.87430784,127.75246810,"쓰레기봉투를 사용하여 지정된 날짜, 시간에 수거위치에 배출","음식물 쓰레기봉투를 사용하여 지정된 날짜, 시간에 수거위치에 배출",재활용품별로 모아서 지정된 장소와 시간에 배출,일+월+화+수+목+금,일+월+화+수+목+금,일+월+화+수+목+금,18:00,23:00,18:00,23:00,18:00,23:00,토,2022-08-21,2022-12-15
4211010000000 ,강원도,춘천시,후평동 841,3권역,후평동,청주오믈렛 앞,37.87490825,127.75243910,"쓰레기봉투를 사용하여 지정된 날짜, 시간에 수거위치에 배출","음식물 쓰레기봉투를 사용하여 지정된 날짜, 시간에 수거위치에 배출",재활용품별로 모아서 지정된 장소와 시간에 배출,일+월+화+수+목+금,일+월+화+수+목+금,일+월+화+수+목+금,18:00,23:00,18:00,23:00,18:00,23:00,토,2022-08-21,2022-12-15
4211010000000 ,강원도,춘천시,후평동 841,3권역,후평동,머리바꿔 앞,37.87555524,127.75245160,"쓰레기봉투를 사용하여 지정된 날짜, 시간에 수거위치에 배출","음식물 쓰레기봉투를 사용하여 지정된 날짜, 시간에 수거위치에 배출",재활용품별로 모아서 지정된 장소와 시간에 배출,일+월+화+수+목+금,일+월+화+수+목+금,일+월+화+수+목+금,18:00,23:00,18:00,23:00,18:00,23:00,토,2022-08-21,2022-12-15
4211010000000 ,강원도,춘천시,후평동 841,3권역,후평동,샐러드에반하다 앞,37.87589743,127.75243050,"쓰레기봉투를 사용하여 지정된 날짜, 시간에 수거위치에 배출","음식물 쓰레기봉투를 사용하여 지정된 날짜, 시간에 수거위치에 배출",재활용품별로 모아서 지정된 장소와 시간에 배출,일+월+화+수+목+금,일+월+화+수+목+금,일+월+화+수+목+금,18:00,23:00,18:00,23:00,18:00,23:00,토,2022-08-21,2022-12-15
4211010000000 ,강원도,춘천시,효자동 715,4권역,효자동,광진전자 앞,37.87127717,127.73240040,"쓰레기봉투를 사용하여 지정된 날짜, 시간에 수거위치에 배출","음식물 쓰레기봉투를 사용하여 지정된 날짜, 시간에 수거위치에 배출",재활용품별로 모아서 지정된 장소와 시간에 배출,일+월+화+수+목+금,일+월+화+수+목+금,일+월+화+수+목+금,18:00,23:00,18:00,23:00,18:00,23:00,토,2022-11-07,2022-12-15
4211010000000 ,강원도,춘천시,효자동 471-83,4권역,효자동,효명1길 32 주택앞,37.87134103,127.73130900,"쓰레기봉투를 사용하여 지정된 날짜, 시간에 수거위치에 배출","음식물 쓰레기봉투를 사용하여 지정된 날짜, 시간에 수거위치에 배출",재활용품별로 모아서 지정된 장소와 시간에 배출,일+월+화+수+목+금,일+월+화+수+목+금,일+월+화+수+목+금,18:00,23:00,18:00,23:00,18:00,23:00,토,2022-11-07,2022-12-15
4211010000000 ,강원도,춘천시,후평동 840-1,3권역,후평동,이마트24,37.87561939,127.75139220,"쓰레기봉투를 사용하여 지정된 날짜, 시간에 수거위치에 배출","음식물 쓰레기봉투를 사용하여 지정된 날짜, 시간에 수거위치에 배출",재활용품별로 모아서 지정된 장소와 시간에 배출,일+월+화+수+목+금,일+월+화+수+목+금,일+월+화+수+목+금,18:00,23:00,18:00,23:00,18:00,23:00,토,2022-08-21,2022-12-15
4211010000000 ,강원도,춘천시,후평동 773,3권역,후평동,조히텔 앞,37.88381005,127.74834790,"쓰레기봉투를 사용하여 지정된 날짜, 시간에 수거위치에 배출","음식물 쓰레기봉투를 사용하여 지정된 날짜, 시간에 수거위치에 배출",재활용품별로 모아서 지정된 장소와 시간에 배출,일+월+화+수+목+금,일+월+화+수+목+금,일+월+화+수+목+금,18:00,23:00,18:00,23:00,18:00,23:00,토,2022-08-21,2022-12-15
4211010000000 ,강원도,춘천시,후평동 773,3권역,후평동,윤씨머리방 앞,37.88477477,127.74845420,"쓰레기봉투를 사용하여 지정된 날짜, 시간에 수거위치에 배출","음식물 쓰레기봉투를 사용하여 지정된 날짜, 시간에 수거위치에 배출",재활용품별로 모아서 지정된 장소와 시간에 배출,일+월+화+수+목+금,일+월+화+수+목+금,일+월+화+수+목+금,18:00,23:00,18:00,23:00,18:00,23:00,토,2022-08-21,2022-12-15
4211010000000 ,강원도,춘천시,후평동 772,3권역,후평동,대왕감자탕 앞,37.88450331,127.74925530,"쓰레기봉투를 사용하여 지정된 날짜, 시간에 수거위치에 배출","음식물 쓰레기봉투를 사용하여 지정된 날짜, 시간에 수거위치에 배출",재활용품별로 모아서 지정된 장소와 시간에 배출,일+월+화+수+목+금,일+월+화+수+목+금,일+월+화+수+목+금,18:00,23:00,18:00,23:00,18:00,23:00,토,2022-08-21,2022-12-15
4211010000000 ,강원도,춘천시,후평동 722,3권역,후평동,대한마트 주차장쪽,37.88533538,127.74838480,"쓰레기봉투를 사용하여 지정된 날짜, 시간에 수거위치에 배출","음식물 쓰레기봉투를 사용하여 지정된 날짜, 시간에 수거위치에 배출",재활용품별로 모아서 지정된 장소와 시간에 배출,일+월+화+수+목+금,일+월+화+수+목+금,일+월+화+수+목+금,18:00,23:00,18:00,23:00,18:00,23:00,토,2022-08-21,2022-12-15
4211010000000 ,강원도,춘천시,효자동 662-3,4권역,효자동,모리,37.87253116,127.73304300,"쓰레기봉투를 사용하여 지정된 날짜, 시간에 수거위치에 배출","음식물 쓰레기봉투를 사용하여 지정된 날짜, 시간에 수거위치에 배출",재활용품별로 모아서 지정된 장소와 시간에 배출,일+월+화+수+목+금,일+월+화+수+목+금,일+월+화+수+목+금,18:00,23:00,18:00,23:00,18:00,23:00,토,2022-09-30,2022-12-15
4211010000000 ,강원도,춘천시,효자동 303-29,4권역,효자동,장수모텔 앞,37.86469568,127.73432540,"쓰레기봉투를 사용하여 지정된 날짜, 시간에 수거위치에 배출","음식물 쓰레기봉투를 사용하여 지정된 날짜, 시간에 수거위치에 배출",재활용품별로 모아서 지정된 장소와 시간에 배출,일+월+화+수+목+금,일+월+화+수+목+금,일+월+화+수+목+금,18:00,23:00,18:00,23:00,18:00,23:00,토,2022-11-07,2022-12-15
4211010000000 ,강원도,춘천시,효자동 673-9,4권역,효자동,현대목재,37.87051540,127.72670460,"쓰레기봉투를 사용하여 지정된 날짜, 시간에 수거위치에 배출","음식물 쓰레기봉투를 사용하여 지정된 날짜, 시간에 수거위치에 배출",재활용품별로 모아서 지정된 장소와 시간에 배출,일+월+화+수+목+금,일+월+화+수+목+금,일+월+화+수+목+금,18:00,23:00,18:00,23:00,18:00,23:00,토,2022-11-07,2022-12-15
4211010000000 ,강원도,춘천시,후평동 787,2권역,후평동,하늘사랑 앞,37.88080403,127.74064050,"쓰레기봉투를 사용하여 지정된 날짜, 시간에 수거위치에 배출","음식물 쓰레기봉투를 사용하여 지정된 날짜, 시간에 수거위치에 배출",재활용품별로 모아서 지정된 장소와 시간에 배출,일+월+화+수+목+금,일+월+화+수+목+금,일+월+화+수+목+금,18:00,23:00,18:00,23:00,18:00,23:00,토,2022-08-21,2022-12-15
4211010000000 ,강원도,춘천시,효자동 714,4권역,효자동,우리식당,37.86564960,127.73258580,"쓰레기봉투를 사용하여 지정된 날짜, 시간에 수거위치에 배출","음식물 쓰레기봉투를 사용하여 지정된 날짜, 시간에 수거위치에 배출",재활용품별로 모아서 지정된 장소와 시간에 배출,일+월+화+수+목+금,일+월+화+수+목+금,일+월+화+수+목+금,18:00,23:00,18:00,23:00,18:00,23:00,토,2022-11-07,2022-12-15
4211010000000 ,강원도,춘천시,후평동 229-45,3권역,후평동,영구네통닭 앞,37.89107713,127.75016070,"쓰레기봉투를 사용하여 지정된 날짜, 시간에 수거위치에 배출","음식물 쓰레기봉투를 사용하여 지정된 날짜, 시간에 수거위치에 배출",재활용품별로 모아서 지정된 장소와 시간에 배출,일+월+화+수+목+금,일+월+화+수+목+금,일+월+화+수+목+금,18:00,23:00,18:00,23:00,18:00,23:00,토,2022-08-21,2022-12-15
4211010000000 ,강원도,춘천시,후평동 229-29,3권역,후평동,영구네통닭 건너편,37.89093323,127.75035810,"쓰레기봉투를 사용하여 지정된 날짜, 시간에 수거위치에 배출","음식물 쓰레기봉투를 사용하여 지정된 날짜, 시간에 수거위치에 배출",재활용품별로 모아서 지정된 장소와 시간에 배출,일+월+화+수+목+금,일+월+화+수+목+금,일+월+화+수+목+금,18:00,23:00,18:00,23:00,18:00,23:00,토,2022-08-21,2022-12-15
4211010000000 ,강원도,춘천시,후평동 719,2권역,후평동,로얄타워 앞,37.87961119,127.74256230,"쓰레기봉투를 사용하여 지정된 날짜, 시간에 수거위치에 배출","음식물 쓰레기봉투를 사용하여 지정된 날짜, 시간에 수거위치에 배출",재활용품별로 모아서 지정된 장소와 시간에 배출,일+월+화+수+목+금,일+월+화+수+목+금,일+월+화+수+목+금,18:00,23:00,18:00,23:00,18:00,23:00,토,2022-08-21,2022-12-15
4211010000000 ,강원도,춘천시,후평동 225-17,3권역,후평동,후평1동16-248,37.89200214,127.74996000,"쓰레기봉투를 사용하여 지정된 날짜, 시간에 수거위치에 배출","음식물 쓰레기봉투를 사용하여 지정된 날짜, 시간에 수거위치에 배출",재활용품별로 모아서 지정된 장소와 시간에 배출,일+월+화+수+목+금,일+월+화+수+목+금,일+월+화+수+목+금,18:00,23:00,18:00,23:00,18:00,23:00,토,2022-08-21,2022-12-15
4211010000000 ,강원도,춘천시,후평동 224-3,3권역,후평동,소담송하 앞,37.89206160,127.74904300,"쓰레기봉투를 사용하여 지정된 날짜, 시간에 수거위치에 배출","음식물 쓰레기봉투를 사용하여 지정된 날짜, 시간에 수거위치에 배출",재활용품별로 모아서 지정된 장소와 시간에 배출,일+월+화+수+목+금,일+월+화+수+목+금,일+월+화+수+목+금,18:00,23:00,18:00,23:00,18:00,23:00,토,2022-08-21,2022-12-15
4211010000000 ,강원도,춘천시,후평동 209-10,3권역,후평동,탁이카센타옆,37.89243932,127.74949400,"쓰레기봉투를 사용하여 지정된 날짜, 시간에 수거위치에 배출","음식물 쓰레기봉투를 사용하여 지정된 날짜, 시간에 수거위치에 배출",재활용품별로 모아서 지정된 장소와 시간에 배출,일+월+화+수+목+금,일+월+화+수+목+금,일+월+화+수+목+금,18:00,23:00,18:00,23:00,18:00,23:00,토,2022-08-21,2022-12-15
4211010000000 ,강원도,춘천시,후평동 784,2권역,후평동,춘천로 310번길 ,37.88071497,127.74731510,"쓰레기봉투를 사용하여 지정된 날짜, 시간에 수거위치에 배출","음식물 쓰레기봉투를 사용하여 지정된 날짜, 시간에 수거위치에 배출",재활용품별로 모아서 지정된 장소와 시간에 배출,일+월+화+수+목+금,일+월+화+수+목+금,일+월+화+수+목+금,18:00,23:00,18:00,23:00,18:00,23:00,토,2022-08-21,2022-12-15
4211010000000 ,강원도,춘천시,후평동 198-30,3권역,후평동,주식회사 보성 앞,37.89249148,127.75001370,"쓰레기봉투를 사용하여 지정된 날짜, 시간에 수거위치에 배출","음식물 쓰레기봉투를 사용하여 지정된 날짜, 시간에 수거위치에 배출",재활용품별로 모아서 지정된 장소와 시간에 배출,일+월+화+수+목+금,일+월+화+수+목+금,일+월+화+수+목+금,18:00,23:00,18:00,23:00,18:00,23:00,토,2022-08-21,2022-12-15
4211010000000 ,강원도,춘천시,후평동 904,2권역,후평동,승옥이네,37.88041532,127.74682880,"쓰레기봉투를 사용하여 지정된 날짜, 시간에 수거위치에 배출","음식물 쓰레기봉투를 사용하여 지정된 날짜, 시간에 수거위치에 배출",재활용품별로 모아서 지정된 장소와 시간에 배출,일+월+화+수+목+금,일+월+화+수+목+금,일+월+화+수+목+금,18:00,23:00,18:00,23:00,18:00,23:00,토,2022-08-21,2022-12-15
4211010000000 ,강원도,춘천시,후평동 198-66,3권역,후평동,선진정비공장 앞,37.89261135,127.75062820,"쓰레기봉투를 사용하여 지정된 날짜, 시간에 수거위치에 배출","음식물 쓰레기봉투를 사용하여 지정된 날짜, 시간에 수거위치에 배출",재활용품별로 모아서 지정된 장소와 시간에 배출,일+월+화+수+목+금,일+월+화+수+목+금,일+월+화+수+목+금,18:00,23:00,18:00,23:00,18:00,23:00,토,2022-08-21,2022-12-15
4211010000000 ,강원도,춘천시,효자동 724-2,4권역,효자동,이마트 24,37.87276168,127.73354940,"쓰레기봉투를 사용하여 지정된 날짜, 시간에 수거위치에 배출","음식물 쓰레기봉투를 사용하여 지정된 날짜, 시간에 수거위치에 배출",재활용품별로 모아서 지정된 장소와 시간에 배출,일+월+화+수+목+금,일+월+화+수+목+금,일+월+화+수+목+금,18:00,23:00,18:00,23:00,18:00,23:00,토,2022-11-07,2022-12-15
4211010000000 ,강원도,춘천시,효자동 40-81,2권역,효자동,은혜어린이집 옆,37.87554267,127.74076690,"쓰레기봉투를 사용하여 지정된 날짜, 시간에 수거위치에 배출","음식물 쓰레기봉투를 사용하여 지정된 날짜, 시간에 수거위치에 배출",재활용품별로 모아서 지정된 장소와 시간에 배출,일+월+화+수+목+금,일+월+화+수+목+금,일+월+화+수+목+금,18:00,23:00,18:00,23:00,18:00,23:00,토,2022-11-07,2022-12-15
4211010000000 ,강원도,춘천시,효자동 159-20,4권역,효자동,소양하다 옆,37.87139925,127.73760360,"쓰레기봉투를 사용하여 지정된 날짜, 시간에 수거위치에 배출","음식물 쓰레기봉투를 사용하여 지정된 날짜, 시간에 수거위치에 배출",재활용품별로 모아서 지정된 장소와 시간에 배출,일+월+화+수+목+금,일+월+화+수+목+금,일+월+화+수+목+금,18:00,23:00,18:00,23:00,18:00,23:00,토,2022-11-07,2022-12-15
4211010000000 ,강원도,춘천시,후평동 910,2권역,후평동,백령로 165번길 ,37.87664975,127.74567880,"쓰레기봉투를 사용하여 지정된 날짜, 시간에 수거위치에 배출","음식물 쓰레기봉투를 사용하여 지정된 날짜, 시간에 수거위치에 배출",재활용품별로 모아서 지정된 장소와 시간에 배출,일+월+화+수+목+금,일+월+화+수+목+금,일+월+화+수+목+금,18:00,23:00,18:00,23:00,18:00,23:00,토,2022-08-21,2022-12-15
4211010000000 ,강원도,춘천시,후평동 67-15,3권역,후평동,gs25 앞 ,37.87541376,127.74641350,"쓰레기봉투를 사용하여 지정된 날짜, 시간에 수거위치에 배출","음식물 쓰레기봉투를 사용하여 지정된 날짜, 시간에 수거위치에 배출",재활용품별로 모아서 지정된 장소와 시간에 배출,일+월+화+수+목+금,일+월+화+수+목+금,일+월+화+수+목+금,18:00,23:00,18:00,23:00,18:00,23:00,토,2022-08-21,2022-12-15
4211010000000 ,강원도,춘천시,후평동 67-110,3권역,후평동,푸른언덕공원 옆,37.87593909,127.74702120,"쓰레기봉투를 사용하여 지정된 날짜, 시간에 수거위치에 배출","음식물 쓰레기봉투를 사용하여 지정된 날짜, 시간에 수거위치에 배출",재활용품별로 모아서 지정된 장소와 시간에 배출,일+월+화+수+목+금,일+월+화+수+목+금,일+월+화+수+목+금,18:00,23:00,18:00,23:00,18:00,23:00,토,2022-08-21,2022-12-15
4211010000000 ,강원도,춘천시,후평동 67-13,3권역,후평동,미니스톱 앞,37.87676489,127.74735840,"쓰레기봉투를 사용하여 지정된 날짜, 시간에 수거위치에 배출","음식물 쓰레기봉투를 사용하여 지정된 날짜, 시간에 수거위치에 배출",재활용품별로 모아서 지정된 장소와 시간에 배출,일+월+화+수+목+금,일+월+화+수+목+금,일+월+화+수+목+금,18:00,23:00,18:00,23:00,18:00,23:00,토,2022-08-21,2022-12-15
4211010000000 ,강원도,춘천시,후평동 699-5,3권역,후평동,백령로 221-8 앞,37.87891162,127.74988190,"쓰레기봉투를 사용하여 지정된 날짜, 시간에 수거위치에 배출","음식물 쓰레기봉투를 사용하여 지정된 날짜, 시간에 수거위치에 배출",재활용품별로 모아서 지정된 장소와 시간에 배출,일+월+화+수+목+금,일+월+화+수+목+금,일+월+화+수+목+금,18:00,23:00,18:00,23:00,18:00,23:00,토,2022-08-21,2022-12-15
4211010000000 ,강원도,춘천시,후평동 841,3권역,후평동,베스킨라빈스 앞,37.87766358,127.75161810,"쓰레기봉투를 사용하여 지정된 날짜, 시간에 수거위치에 배출","음식물 쓰레기봉투를 사용하여 지정된 날짜, 시간에 수거위치에 배출",재활용품별로 모아서 지정된 장소와 시간에 배출,일+월+화+수+목+금,일+월+화+수+목+금,일+월+화+수+목+금,18:00,23:00,18:00,23:00,18:00,23:00,토,2022-08-21,2022-12-15
4211010000000 ,강원도,춘천시,후평동 841,3권역,후평동,후평3복지센터 앞,37.87666328,127.75370070,"쓰레기봉투를 사용하여 지정된 날짜, 시간에 수거위치에 배출","음식물 쓰레기봉투를 사용하여 지정된 날짜, 시간에 수거위치에 배출",재활용품별로 모아서 지정된 장소와 시간에 배출,일+월+화+수+목+금,일+월+화+수+목+금,일+월+화+수+목+금,18:00,23:00,18:00,23:00,18:00,23:00,토,2022-08-21,2022-12-15
4211010000000 ,강원도,춘천시,효자동 149-27,4권역,효자동,효자로 124번길 22,37.87291287,127.73629690,"쓰레기봉투를 사용하여 지정된 날짜, 시간에 수거위치에 배출","음식물 쓰레기봉투를 사용하여 지정된 날짜, 시간에 수거위치에 배출",재활용품별로 모아서 지정된 장소와 시간에 배출,일+월+화+수+목+금,일+월+화+수+목+금,일+월+화+수+목+금,18:00,23:00,18:00,23:00,18:00,23:00,토,2022-11-07,2022-12-15
4211010000000 ,강원도,춘천시,효자동 721,4권역,효자동,베네치아 주차장,37.87486843,127.73516990,"쓰레기봉투를 사용하여 지정된 날짜, 시간에 수거위치에 배출","음식물 쓰레기봉투를 사용하여 지정된 날짜, 시간에 수거위치에 배출",재활용품별로 모아서 지정된 장소와 시간에 배출,일+월+화+수+목+금,일+월+화+수+목+금,일+월+화+수+목+금,18:00,23:00,18:00,23:00,18:00,23:00,토,2022-11-07,2022-12-15
4211010000000 ,강원도,춘천시,효자동 755-5,2권역,효자동,도하,37.88017283,127.74094290,"쓰레기봉투를 사용하여 지정된 날짜, 시간에 수거위치에 배출","음식물 쓰레기봉투를 사용하여 지정된 날짜, 시간에 수거위치에 배출",재활용품별로 모아서 지정된 장소와 시간에 배출,일+월+화+수+목+금,일+월+화+수+목+금,일+월+화+수+목+금,18:00,23:00,18:00,23:00,18:00,23:00,토,2022-11-07,2022-12-15
4211010000000 ,강원도,춘천시,후평동 915,3권역,후평동,오봉집 앞,37.87875306,127.75148040,"쓰레기봉투를 사용하여 지정된 날짜, 시간에 수거위치에 배출","음식물 쓰레기봉투를 사용하여 지정된 날짜, 시간에 수거위치에 배출",재활용품별로 모아서 지정된 장소와 시간에 배출,일+월+화+수+목+금,일+월+화+수+목+금,일+월+화+수+목+금,18:00,23:00,18:00,23:00,18:00,23:00,토,2022-08-21,2022-12-15
4211010000000 ,강원도,춘천시,후평동 67-16,3권역,후평동,우리동그라미 어린이집 앞,37.87963342,127.75166680,"쓰레기봉투를 사용하여 지정된 날짜, 시간에 수거위치에 배출","음식물 쓰레기봉투를 사용하여 지정된 날짜, 시간에 수거위치에 배출",재활용품별로 모아서 지정된 장소와 시간에 배출,일+월+화+수+목+금,일+월+화+수+목+금,일+월+화+수+목+금,18:00,23:00,18:00,23:00,18:00,23:00,토,2022-08-21,2022-12-15
4211010000000 ,강원도,춘천시,후평동 456-28,3권역,후평동,ms마트,37.88068094,127.75120010,"쓰레기봉투를 사용하여 지정된 날짜, 시간에 수거위치에 배출","음식물 쓰레기봉투를 사용하여 지정된 날짜, 시간에 수거위치에 배출",재활용품별로 모아서 지정된 장소와 시간에 배출,일+월+화+수+목+금,일+월+화+수+목+금,일+월+화+수+목+금,18:00,23:00,18:00,23:00,18:00,23:00,토,2022-08-21,2022-12-15
4211010000000 ,강원도,춘천시,후평동 456-28,3권역,후평동,ms마트 앞,37.88060079,127.75102410,"쓰레기봉투를 사용하여 지정된 날짜, 시간에 수거위치에 배출","음식물 쓰레기봉투를 사용하여 지정된 날짜, 시간에 수거위치에 배출",재활용품별로 모아서 지정된 장소와 시간에 배출,일+월+화+수+목+금,일+월+화+수+목+금,일+월+화+수+목+금,18:00,23:00,18:00,23:00,18:00,23:00,토,2022-08-21,2022-12-15
4211010000000 ,강원도,춘천시,후평동 719,3권역,후평동,신한은행 앞,37.88000224,127.74991500,"쓰레기봉투를 사용하여 지정된 날짜, 시간에 수거위치에 배출","음식물 쓰레기봉투를 사용하여 지정된 날짜, 시간에 수거위치에 배출",재활용품별로 모아서 지정된 장소와 시간에 배출,일+월+화+수+목+금,일+월+화+수+목+금,일+월+화+수+목+금,18:00,23:00,18:00,23:00,18:00,23:00,토,2022-08-21,2022-12-15
4211010000000 ,강원도,춘천시,효자동 760,2권역,효자동,세한전기,37.87787569,127.73881460,"쓰레기봉투를 사용하여 지정된 날짜, 시간에 수거위치에 배출","음식물 쓰레기봉투를 사용하여 지정된 날짜, 시간에 수거위치에 배출",재활용품별로 모아서 지정된 장소와 시간에 배출,일+월+화+수+목+금,일+월+화+수+목+금,일+월+화+수+목+금,18:00,23:00,18:00,23:00,18:00,23:00,토,2022-09-03,2022-12-15
4211010000000 ,강원도,춘천시,효자동 629-3,3권역,효자동,인쌩맥주 앞,37.87357295,127.74401810,"쓰레기봉투를 사용하여 지정된 날짜, 시간에 수거위치에 배출","음식물 쓰레기봉투를 사용하여 지정된 날짜, 시간에 수거위치에 배출",재활용품별로 모아서 지정된 장소와 시간에 배출,일+월+화+수+목+금,일+월+화+수+목+금,일+월+화+수+목+금,18:00,23:00,18:00,23:00,18:00,23:00,토,2022-11-07,2022-12-15
4211010000000 ,강원도,춘천시,효자동 635,3권역,효자동,빙수의 신 앞,37.87258912,127.74536610,"쓰레기봉투를 사용하여 지정된 날짜, 시간에 수거위치에 배출","음식물 쓰레기봉투를 사용하여 지정된 날짜, 시간에 수거위치에 배출",재활용품별로 모아서 지정된 장소와 시간에 배출,일+월+화+수+목+금,일+월+화+수+목+금,일+월+화+수+목+금,18:00,23:00,18:00,23:00,18:00,23:00,토,2022-11-07,2022-12-15
4211010000000 ,강원도,춘천시,효자동 638,3권역,효자동,다저스 앞,37.87386904,127.74234720,"쓰레기봉투를 사용하여 지정된 날짜, 시간에 수거위치에 배출","음식물 쓰레기봉투를 사용하여 지정된 날짜, 시간에 수거위치에 배출",재활용품별로 모아서 지정된 장소와 시간에 배출,일+월+화+수+목+금,일+월+화+수+목+금,일+월+화+수+목+금,18:00,23:00,18:00,23:00,18:00,23:00,토,2022-11-07,2022-12-15
4211010000000 ,강원도,춘천시,후평동 772,3권역,후평동,와와수산 앞,37.88301987,127.74871380,"쓰레기봉투를 사용하여 지정된 날짜, 시간에 수거위치에 배출","음식물 쓰레기봉투를 사용하여 지정된 날짜, 시간에 수거위치에 배출",재활용품별로 모아서 지정된 장소와 시간에 배출,일+월+화+수+목+금,일+월+화+수+목+금,일+월+화+수+목+금,18:00,23:00,18:00,23:00,18:00,23:00,토,2022-08-21,2022-12-15
4211010000000 ,강원도,춘천시,후평동 703,3권역,후평동,파스쿠치,37.88254070,127.74852960,"쓰레기봉투를 사용하여 지정된 날짜, 시간에 수거위치에 배출","음식물 쓰레기봉투를 사용하여 지정된 날짜, 시간에 수거위치에 배출",재활용품별로 모아서 지정된 장소와 시간에 배출,일+월+화+수+목+금,일+월+화+수+목+금,일+월+화+수+목+금,18:00,23:00,18:00,23:00,18:00,23:00,토,2022-08-21,2022-12-15
4211010000000 ,강원도,춘천시,후평동 719,3권역,후평동,아띠몽 앞,37.88172565,127.74869030,"쓰레기봉투를 사용하여 지정된 날짜, 시간에 수거위치에 배출","음식물 쓰레기봉투를 사용하여 지정된 날짜, 시간에 수거위치에 배출",재활용품별로 모아서 지정된 장소와 시간에 배출,일+월+화+수+목+금,일+월+화+수+목+금,일+월+화+수+목+금,18:00,23:00,18:00,23:00,18:00,23:00,토,2022-08-21,2022-12-15
4211010000000 ,강원도,춘천시,후평동 719,3권역,후평동,다이소 앞 ,37.88104204,127.74916600,"쓰레기봉투를 사용하여 지정된 날짜, 시간에 수거위치에 배출","음식물 쓰레기봉투를 사용하여 지정된 날짜, 시간에 수거위치에 배출",재활용품별로 모아서 지정된 장소와 시간에 배출,일+월+화+수+목+금,일+월+화+수+목+금,일+월+화+수+목+금,18:00,23:00,18:00,23:00,18:00,23:00,토,2022-08-21,2022-12-15
4211010000000 ,강원도,춘천시,후평동 719,3권역,후평동,두드림 독서실 앞,37.88090703,127.74926740,"쓰레기봉투를 사용하여 지정된 날짜, 시간에 수거위치에 배출","음식물 쓰레기봉투를 사용하여 지정된 날짜, 시간에 수거위치에 배출",재활용품별로 모아서 지정된 장소와 시간에 배출,일+월+화+수+목+금,일+월+화+수+목+금,일+월+화+수+목+금,18:00,23:00,18:00,23:00,18:00,23:00,토,2022-08-21,2022-12-15
4211010000000 ,강원도,춘천시,후평동 719,3권역,후평동,맥도날드 앞,37.88077206,127.74936400,"쓰레기봉투를 사용하여 지정된 날짜, 시간에 수거위치에 배출","음식물 쓰레기봉투를 사용하여 지정된 날짜, 시간에 수거위치에 배출",재활용품별로 모아서 지정된 장소와 시간에 배출,일+월+화+수+목+금,일+월+화+수+목+금,일+월+화+수+목+금,18:00,23:00,18:00,23:00,18:00,23:00,토,2022-08-21,2022-12-15
4211010000000 ,강원도,춘천시,후평동 789,3권역,후평동,한우참맛갈비건너편,37.88963228,127.75452830,"쓰레기봉투를 사용하여 지정된 날짜, 시간에 수거위치에 배출","음식물 쓰레기봉투를 사용하여 지정된 날짜, 시간에 수거위치에 배출",재활용품별로 모아서 지정된 장소와 시간에 배출,일+월+화+수+목+금,일+월+화+수+목+금,일+월+화+수+목+금,18:00,23:00,18:00,23:00,18:00,23:00,토,2022-08-23,2022-12-15
4211010000000 ,강원도,춘천시,효자동 287-5,4권역,효자동,뚜레쥬르 앞,37.86386876,127.73737900,"쓰레기봉투를 사용하여 지정된 날짜, 시간에 수거위치에 배출","음식물 쓰레기봉투를 사용하여 지정된 날짜, 시간에 수거위치에 배출",재활용품별로 모아서 지정된 장소와 시간에 배출,일+월+화+수+목+금,일+월+화+수+목+금,일+월+화+수+목+금,18:00,23:00,18:00,23:00,18:00,23:00,토,2022-09-07,2022-12-15
4211010000000 ,강원도,춘천시,후평동 768,3권역,후평동,리치캐슬,37.88499729,127.75126380,"쓰레기봉투를 사용하여 지정된 날짜, 시간에 수거위치에 배출","음식물 쓰레기봉투를 사용하여 지정된 날짜, 시간에 수거위치에 배출",재활용품별로 모아서 지정된 장소와 시간에 배출,일+월+화+수+목+금,일+월+화+수+목+금,일+월+화+수+목+금,18:00,23:00,18:00,23:00,18:00,23:00,토,2022-08-21,2022-12-15
4211010000000 ,강원도,춘천시,후평동 산 10,3권역,후평동,광영교회 옆,37.88521395,127.75228620,"쓰레기봉투를 사용하여 지정된 날짜, 시간에 수거위치에 배출","음식물 쓰레기봉투를 사용하여 지정된 날짜, 시간에 수거위치에 배출",재활용품별로 모아서 지정된 장소와 시간에 배출,일+월+화+수+목+금,일+월+화+수+목+금,일+월+화+수+목+금,18:00,23:00,18:00,23:00,18:00,23:00,토,2022-08-21,2022-12-15
4211010000000 ,강원도,춘천시,후평동 767,3권역,후평동,함지박 옆,37.88564250,127.75163780,"쓰레기봉투를 사용하여 지정된 날짜, 시간에 수거위치에 배출","음식물 쓰레기봉투를 사용하여 지정된 날짜, 시간에 수거위치에 배출",재활용품별로 모아서 지정된 장소와 시간에 배출,일+월+화+수+목+금,일+월+화+수+목+금,일+월+화+수+목+금,18:00,23:00,18:00,23:00,18:00,23:00,토,2022-08-21,2022-12-15
4211010000000 ,강원도,춘천시,후평동 771,3권역,후평동,현대중고백화점,37.88534758,127.75039460,"쓰레기봉투를 사용하여 지정된 날짜, 시간에 수거위치에 배출","음식물 쓰레기봉투를 사용하여 지정된 날짜, 시간에 수거위치에 배출",재활용품별로 모아서 지정된 장소와 시간에 배출,일+월+화+수+목+금,일+월+화+수+목+금,일+월+화+수+목+금,18:00,23:00,18:00,23:00,18:00,23:00,토,2022-08-21,2022-12-15
4211010000000 ,강원도,춘천시,효자동 17-3,3권역,효자동,청년헬스 건너편,37.87613190,127.74593550,"쓰레기봉투를 사용하여 지정된 날짜, 시간에 수거위치에 배출","음식물 쓰레기봉투를 사용하여 지정된 날짜, 시간에 수거위치에 배출",재활용품별로 모아서 지정된 장소와 시간에 배출,일+월+화+수+목+금,일+월+화+수+목+금,일+월+화+수+목+금,18:00,23:00,18:00,23:00,18:00,23:00,토,2022-08-21,2022-12-15
4211010000000 ,강원도,춘천시,후평동 758,3권역,후평동,왕소갈비 앞,37.88724103,127.75079090,"쓰레기봉투를 사용하여 지정된 날짜, 시간에 수거위치에 배출","음식물 쓰레기봉투를 사용하여 지정된 날짜, 시간에 수거위치에 배출",재활용품별로 모아서 지정된 장소와 시간에 배출,일+월+화+수+목+금,일+월+화+수+목+금,일+월+화+수+목+금,18:00,23:00,18:00,23:00,18:00,23:00,토,2022-08-23,2022-12-15
4211010000000 ,강원도,춘천시,후평동 761,3권역,후평동,바른치킨,37.88949289,127.75195690,"쓰레기봉투를 사용하여 지정된 날짜, 시간에 수거위치에 배출","음식물 쓰레기봉투를 사용하여 지정된 날짜, 시간에 수거위치에 배출",재활용품별로 모아서 지정된 장소와 시간에 배출,일+월+화+수+목+금,일+월+화+수+목+금,일+월+화+수+목+금,18:00,23:00,18:00,23:00,18:00,23:00,토,2022-08-23,2022-12-15
4211010000000 ,강원도,춘천시,후평동 910,2권역,후평동,일성트루엘 담벼락,37.87678687,127.74560030,"쓰레기봉투를 사용하여 지정된 날짜, 시간에 수거위치에 배출","음식물 쓰레기봉투를 사용하여 지정된 날짜, 시간에 수거위치에 배출",재활용품별로 모아서 지정된 장소와 시간에 배출,일+월+화+수+목+금,일+월+화+수+목+금,일+월+화+수+목+금,18:00,23:00,18:00,23:00,18:00,23:00,토,2022-09-03,2022-12-15
4211010000000 ,강원도,춘천시,후평동 480-79,3권역,후평동,하스피럴버거,37.87262173,127.74654360,"쓰레기봉투를 사용하여 지정된 날짜, 시간에 수거위치에 배출","음식물 쓰레기봉투를 사용하여 지정된 날짜, 시간에 수거위치에 배출",재활용품별로 모아서 지정된 장소와 시간에 배출,일+월+화+수+목+금,일+월+화+수+목+금,일+월+화+수+목+금,18:00,23:00,18:00,23:00,18:00,23:00,토,2022-09-03,2022-12-15
4211010000000 ,강원도,춘천시,후평동 481,3권역,후평동,파란텔레콤,37.87390765,127.74550870,"쓰레기봉투를 사용하여 지정된 날짜, 시간에 수거위치에 배출","음식물 쓰레기봉투를 사용하여 지정된 날짜, 시간에 수거위치에 배출",재활용품별로 모아서 지정된 장소와 시간에 배출,일+월+화+수+목+금,일+월+화+수+목+금,일+월+화+수+목+금,18:00,23:00,18:00,23:00,18:00,23:00,토,2022-09-03,2022-12-15
4211010000000 ,강원도,춘천시,후평동 480-79,3권역,후평동,타코앤꼬치,37.87250897,127.74649860,"쓰레기봉투를 사용하여 지정된 날짜, 시간에 수거위치에 배출","음식물 쓰레기봉투를 사용하여 지정된 날짜, 시간에 수거위치에 배출",재활용품별로 모아서 지정된 장소와 시간에 배출,일+월+화+수+목+금,일+월+화+수+목+금,일+월+화+수+목+금,18:00,23:00,18:00,23:00,18:00,23:00,토,2022-09-05,2022-12-15
4211010000000 ,강원도,춘천시,후평동 787,2권역,후평동,하늘사랑,37.88083570,127.74065660,"쓰레기봉투를 사용하여 지정된 날짜, 시간에 수거위치에 배출","음식물 쓰레기봉투를 사용하여 지정된 날짜, 시간에 수거위치에 배출",재활용품별로 모아서 지정된 장소와 시간에 배출,일+월+화+수+목+금,일+월+화+수+목+금,일+월+화+수+목+금,18:00,23:00,18:00,23:00,18:00,23:00,토,2022-10-14,2022-12-15
4211010000000 ,강원도,춘천시,후평동 523-15,2권역,후평동,보안등 16-113,37.88125091,127.74159830,"쓰레기봉투를 사용하여 지정된 날짜, 시간에 수거위치에 배출","음식물 쓰레기봉투를 사용하여 지정된 날짜, 시간에 수거위치에 배출",재활용품별로 모아서 지정된 장소와 시간에 배출,일+월+화+수+목+금,일+월+화+수+목+금,일+월+화+수+목+금,18:00,23:00,18:00,23:00,18:00,23:00,토,2022-10-14,2022-12-15
4211010000000 ,강원도,춘천시,후평동 857,2권역,후평동,삭주로 108번길 40,37.88214948,127.74098070,"쓰레기봉투를 사용하여 지정된 날짜, 시간에 수거위치에 배출","음식물 쓰레기봉투를 사용하여 지정된 날짜, 시간에 수거위치에 배출",재활용품별로 모아서 지정된 장소와 시간에 배출,일+월+화+수+목+금,일+월+화+수+목+금,일+월+화+수+목+금,18:00,23:00,18:00,23:00,18:00,23:00,토,2022-10-14,2022-12-15
4211010000000 ,강원도,춘천시,후평동 910,2권역,후평동,후평동498-341 주택 앞,37.87671393,127.74564870,"쓰레기봉투를 사용하여 지정된 날짜, 시간에 수거위치에 배출","음식물 쓰레기봉투를 사용하여 지정된 날짜, 시간에 수거위치에 배출",재활용품별로 모아서 지정된 장소와 시간에 배출,일+월+화+수+목+금,일+월+화+수+목+금,일+월+화+수+목+금,18:00,23:00,18:00,23:00,18:00,23:00,토,2022-11-07,2022-12-15
4211010000000 ,강원도,춘천시,후평동 67-110,3권역,후평동,푸른언덕공원 앞,37.87539643,127.74648810,"쓰레기봉투를 사용하여 지정된 날짜, 시간에 수거위치에 배출","음식물 쓰레기봉투를 사용하여 지정된 날짜, 시간에 수거위치에 배출",재활용품별로 모아서 지정된 장소와 시간에 배출,일+월+화+수+목+금,일+월+화+수+목+금,일+월+화+수+목+금,18:00,23:00,18:00,23:00,18:00,23:00,토,2022-11-07,2022-12-15
4211010000000 ,강원도,춘천시,후평동 67-10,3권역,후평동,마왕족발,37.87794499,127.75001870,"쓰레기봉투를 사용하여 지정된 날짜, 시간에 수거위치에 배출","음식물 쓰레기봉투를 사용하여 지정된 날짜, 시간에 수거위치에 배출",재활용품별로 모아서 지정된 장소와 시간에 배출,일+월+화+수+목+금,일+월+화+수+목+금,일+월+화+수+목+금,18:00,23:00,18:00,23:00,18:00,23:00,토,2022-11-10,2022-12-15
4211010000000 ,강원도,춘천시,후평동 798-23,3권역,후평동,춘천하늘뜻교회,37.87598313,127.75187800,"쓰레기봉투를 사용하여 지정된 날짜, 시간에 수거위치에 배출","음식물 쓰레기봉투를 사용하여 지정된 날짜, 시간에 수거위치에 배출",재활용품별로 모아서 지정된 장소와 시간에 배출,일+월+화+수+목+금,일+월+화+수+목+금,일+월+화+수+목+금,18:00,23:00,18:00,23:00,18:00,23:00,토,2022-11-10,2022-12-15
4211010000000 ,강원도,춘천시,후평동 841,3권역,후평동,머리잘헤어,37.87672468,127.75211350,"쓰레기봉투를 사용하여 지정된 날짜, 시간에 수거위치에 배출","음식물 쓰레기봉투를 사용하여 지정된 날짜, 시간에 수거위치에 배출",재활용품별로 모아서 지정된 장소와 시간에 배출,일+월+화+수+목+금,일+월+화+수+목+금,일+월+화+수+목+금,18:00,23:00,18:00,23:00,18:00,23:00,토,2022-11-10,2022-12-15
4211010000000 ,강원도,춘천시,우두동 1069,1권역,우두동,카페맑은물,37.89832759,127.72975900,"쓰레기봉투를 사용하여 지정된 날짜, 시간에 수거위치에 배출","음식물 쓰레기봉투를 사용하여 지정된 날짜, 시간에 수거위치에 배출",재활용품별로 모아서 지정된 장소와 시간에 배출,일+월+화+수+목+금,일+월+화+수+목+금,일+월+화+수+목+금,18:00,23:00,18:00,23:00,18:00,23:00,토,2022-09-23,2022-12-15
4211010000000 ,강원도,춘천시,후평동 907,2권역,후평동,순옥이네,37.88045349,127.74688740,"쓰레기봉투를 사용하여 지정된 날짜, 시간에 수거위치에 배출","음식물 쓰레기봉투를 사용하여 지정된 날짜, 시간에 수거위치에 배출",재활용품별로 모아서 지정된 장소와 시간에 배출,일+월+화+수+목+금,일+월+화+수+목+금,일+월+화+수+목+금,18:00,23:00,18:00,23:00,18:00,23:00,토,2022-11-10,2022-12-15
4211010000000 ,강원도,춘천시,후평동 906,2권역,후평동,세탁나라,37.87960821,127.74623930,"쓰레기봉투를 사용하여 지정된 날짜, 시간에 수거위치에 배출","음식물 쓰레기봉투를 사용하여 지정된 날짜, 시간에 수거위치에 배출",재활용품별로 모아서 지정된 장소와 시간에 배출,일+월+화+수+목+금,일+월+화+수+목+금,일+월+화+수+목+금,18:00,23:00,18:00,23:00,18:00,23:00,토,2022-11-10,2022-12-15
4211010000000 ,강원도,춘천시,후평동 445-22,2권역,후평동,17-053보안등,37.87847867,127.74611590,"쓰레기봉투를 사용하여 지정된 날짜, 시간에 수거위치에 배출","음식물 쓰레기봉투를 사용하여 지정된 날짜, 시간에 수거위치에 배출",재활용품별로 모아서 지정된 장소와 시간에 배출,일+월+화+수+목+금,일+월+화+수+목+금,일+월+화+수+목+금,18:00,23:00,18:00,23:00,18:00,23:00,토,2022-11-10,2022-12-15
4211010000000 ,강원도,춘천시,후평동 67-110,3권역,후평동,세븐일레븐,37.87661010,127.74739690,"쓰레기봉투를 사용하여 지정된 날짜, 시간에 수거위치에 배출","음식물 쓰레기봉투를 사용하여 지정된 날짜, 시간에 수거위치에 배출",재활용품별로 모아서 지정된 장소와 시간에 배출,일+월+화+수+목+금,일+월+화+수+목+금,일+월+화+수+목+금,18:00,23:00,18:00,23:00,18:00,23:00,토,2022-11-10,2022-12-15
4211010000000 ,강원도,춘천시,후평동 855-3,2권역,후평동,영영상점,37.88362893,127.74171160,"쓰레기봉투를 사용하여 지정된 날짜, 시간에 수거위치에 배출","음식물 쓰레기봉투를 사용하여 지정된 날짜, 시간에 수거위치에 배출",재활용품별로 모아서 지정된 장소와 시간에 배출,일+월+화+수+목+금,일+월+화+수+목+금,일+월+화+수+목+금,18:00,23:00,18:00,23:00,18:00,23:00,토,2022-11-10,2022-12-15
4211010000000 ,강원도,춘천시,후평동 854-1,2권역,후평동,구제언니,37.88369851,127.74223840,"쓰레기봉투를 사용하여 지정된 날짜, 시간에 수거위치에 배출","음식물 쓰레기봉투를 사용하여 지정된 날짜, 시간에 수거위치에 배출",재활용품별로 모아서 지정된 장소와 시간에 배출,일+월+화+수+목+금,일+월+화+수+목+금,일+월+화+수+목+금,18:00,23:00,18:00,23:00,18:00,23:00,토,2022-11-10,2022-12-15
4211010000000 ,강원도,춘천시,후평동 847,2권역,후평동,한림마트,37.88406994,127.74300700,"쓰레기봉투를 사용하여 지정된 날짜, 시간에 수거위치에 배출","음식물 쓰레기봉투를 사용하여 지정된 날짜, 시간에 수거위치에 배출",재활용품별로 모아서 지정된 장소와 시간에 배출,일+월+화+수+목+금,일+월+화+수+목+금,일+월+화+수+목+금,18:00,23:00,18:00,23:00,18:00,23:00,토,2022-11-10,2022-12-15
4211010000000 ,강원도,춘천시,후평동 711-29,2권역,후평동,성운공인중개사,37.88493757,127.74471610,"쓰레기봉투를 사용하여 지정된 날짜, 시간에 수거위치에 배출","음식물 쓰레기봉투를 사용하여 지정된 날짜, 시간에 수거위치에 배출",재활용품별로 모아서 지정된 장소와 시간에 배출,일+월+화+수+목+금,일+월+화+수+목+금,일+월+화+수+목+금,18:00,23:00,18:00,23:00,18:00,23:00,토,2022-11-10,2022-12-15
4211010000000 ,강원도,춘천시,후평동 710,2권역,후평동,소유헤어,37.88533996,127.74575650,"쓰레기봉투를 사용하여 지정된 날짜, 시간에 수거위치에 배출","음식물 쓰레기봉투를 사용하여 지정된 날짜, 시간에 수거위치에 배출",재활용품별로 모아서 지정된 장소와 시간에 배출,일+월+화+수+목+금,일+월+화+수+목+금,일+월+화+수+목+금,18:00,23:00,18:00,23:00,18:00,23:00,토,2022-11-10,2022-12-15
4211010000000 ,강원도,춘천시,후평동 863,2권역,후평동,진미식당,37.88298004,127.74136900,"쓰레기봉투를 사용하여 지정된 날짜, 시간에 수거위치에 배출","음식물 쓰레기봉투를 사용하여 지정된 날짜, 시간에 수거위치에 배출",재활용품별로 모아서 지정된 장소와 시간에 배출,일+월+화+수+목+금,일+월+화+수+목+금,일+월+화+수+목+금,18:00,23:00,18:00,23:00,18:00,23:00,토,2022-11-10,2022-12-15
4211010000000 ,강원도,춘천시,후평동 863,2권역,후평동,SH빌리지,37.88433537,127.74494160,"쓰레기봉투를 사용하여 지정된 날짜, 시간에 수거위치에 배출","음식물 쓰레기봉투를 사용하여 지정된 날짜, 시간에 수거위치에 배출",재활용품별로 모아서 지정된 장소와 시간에 배출,일+월+화+수+목+금,일+월+화+수+목+금,일+월+화+수+목+금,18:00,23:00,18:00,23:00,18:00,23:00,토,2022-11-10,2022-12-15
4211010000000 ,강원도,춘천시,후평동 710-11,2권역,후평동,신성교회주차장,37.88436849,127.74661210,"쓰레기봉투를 사용하여 지정된 날짜, 시간에 수거위치에 배출","음식물 쓰레기봉투를 사용하여 지정된 날짜, 시간에 수거위치에 배출",재활용품별로 모아서 지정된 장소와 시간에 배출,일+월+화+수+목+금,일+월+화+수+목+금,일+월+화+수+목+금,18:00,23:00,18:00,23:00,18:00,23:00,토,2022-11-10,2022-12-15
4211010000000 ,강원도,춘천시,후평동 705-3,2권역,후평동,신아리랑,37.88240646,127.74677480,"쓰레기봉투를 사용하여 지정된 날짜, 시간에 수거위치에 배출","음식물 쓰레기봉투를 사용하여 지정된 날짜, 시간에 수거위치에 배출",재활용품별로 모아서 지정된 장소와 시간에 배출,일+월+화+수+목+금,일+월+화+수+목+금,일+월+화+수+목+금,18:00,23:00,18:00,23:00,18:00,23:00,토,2022-11-10,2022-12-15
4211010000000 ,강원도,춘천시,후평동 510-15,2권역,후평동,구미재빌라,37.88179135,127.74475670,"쓰레기봉투를 사용하여 지정된 날짜, 시간에 수거위치에 배출","음식물 쓰레기봉투를 사용하여 지정된 날짜, 시간에 수거위치에 배출",재활용품별로 모아서 지정된 장소와 시간에 배출,일+월+화+수+목+금,일+월+화+수+목+금,일+월+화+수+목+금,18:00,23:00,18:00,23:00,18:00,23:00,토,2022-11-10,2022-12-15
4211010000000 ,강원도,춘천시,후평동 719,2권역,후평동,큰이모소막창,37.88016155,127.74342490,"쓰레기봉투를 사용하여 지정된 날짜, 시간에 수거위치에 배출","음식물 쓰레기봉투를 사용하여 지정된 날짜, 시간에 수거위치에 배출",재활용품별로 모아서 지정된 장소와 시간에 배출,일+월+화+수+목+금,일+월+화+수+목+금,일+월+화+수+목+금,18:00,23:00,18:00,23:00,18:00,23:00,토,2022-11-10,2022-12-15
4211010000000 ,강원도,춘천시,후평동 719,2권역,후평동,한남순대,37.88074046,127.74475860,"쓰레기봉투를 사용하여 지정된 날짜, 시간에 수거위치에 배출","음식물 쓰레기봉투를 사용하여 지정된 날짜, 시간에 수거위치에 배출",재활용품별로 모아서 지정된 장소와 시간에 배출,일+월+화+수+목+금,일+월+화+수+목+금,일+월+화+수+목+금,18:00,23:00,18:00,23:00,18:00,23:00,토,2022-11-10,2022-12-15
4211010000000 ,강원도,춘천시,후평동 719,2권역,후평동,즐겨찾기,37.88128489,127.74596650,"쓰레기봉투를 사용하여 지정된 날짜, 시간에 수거위치에 배출","음식물 쓰레기봉투를 사용하여 지정된 날짜, 시간에 수거위치에 배출",재활용품별로 모아서 지정된 장소와 시간에 배출,일+월+화+수+목+금,일+월+화+수+목+금,일+월+화+수+목+금,18:00,23:00,18:00,23:00,18:00,23:00,토,2022-11-10,2022-12-15
4211010000000 ,강원도,춘천시,후평동 719,2권역,후평동,이수은탁구교실,37.88549075,127.74643500,"쓰레기봉투를 사용하여 지정된 날짜, 시간에 수거위치에 배출","음식물 쓰레기봉투를 사용하여 지정된 날짜, 시간에 수거위치에 배출",재활용품별로 모아서 지정된 장소와 시간에 배출,일+월+화+수+목+금,일+월+화+수+목+금,일+월+화+수+목+금,18:00,23:00,18:00,23:00,18:00,23:00,토,2022-11-10,2022-12-15
4211010000000 ,강원도,춘천시,후평동 716-14,2권역,후평동,부자카페,37.88830910,127.74247230,"쓰레기봉투를 사용하여 지정된 날짜, 시간에 수거위치에 배출","음식물 쓰레기봉투를 사용하여 지정된 날짜, 시간에 수거위치에 배출",재활용품별로 모아서 지정된 장소와 시간에 배출,일+월+화+수+목+금,일+월+화+수+목+금,일+월+화+수+목+금,18:00,23:00,18:00,23:00,18:00,23:00,토,2022-11-10,2022-12-15
4211010000000 ,강원도,춘천시,후평동 775,2권역,후평동,경남덕트,37.88919780,127.74134310,"쓰레기봉투를 사용하여 지정된 날짜, 시간에 수거위치에 배출","음식물 쓰레기봉투를 사용하여 지정된 날짜, 시간에 수거위치에 배출",재활용품별로 모아서 지정된 장소와 시간에 배출,일+월+화+수+목+금,일+월+화+수+목+금,일+월+화+수+목+금,18:00,23:00,18:00,23:00,18:00,23:00,토,2022-11-10,2022-12-15
4211010000000 ,강원도,춘천시,후평동 719,2권역,후평동,흥부네집,37.88829833,127.74323700,"쓰레기봉투를 사용하여 지정된 날짜, 시간에 수거위치에 배출","음식물 쓰레기봉투를 사용하여 지정된 날짜, 시간에 수거위치에 배출",재활용품별로 모아서 지정된 장소와 시간에 배출,일+월+화+수+목+금,일+월+화+수+목+금,일+월+화+수+목+금,18:00,23:00,18:00,23:00,18:00,23:00,토,2022-11-10,2022-12-15
4211010000000 ,강원도,춘천시,후평동 772,3권역,후평동,아띠헤어,37.88343844,127.74871360,"쓰레기봉투를 사용하여 지정된 날짜, 시간에 수거위치에 배출","음식물 쓰레기봉투를 사용하여 지정된 날짜, 시간에 수거위치에 배출",재활용품별로 모아서 지정된 장소와 시간에 배출,일+월+화+수+목+금,일+월+화+수+목+금,일+월+화+수+목+금,18:00,23:00,18:00,23:00,18:00,23:00,토,2022-11-11,2022-12-15
4211010000000 ,강원도,춘천시,후평동 773,3권역,후평동,조히텔 옆,37.88378200,127.74832430,"쓰레기봉투를 사용하여 지정된 날짜, 시간에 수거위치에 배출","음식물 쓰레기봉투를 사용하여 지정된 날짜, 시간에 수거위치에 배출",재활용품별로 모아서 지정된 장소와 시간에 배출,일+월+화+수+목+금,일+월+화+수+목+금,일+월+화+수+목+금,18:00,23:00,18:00,23:00,18:00,23:00,토,2022-11-11,2022-12-15
4211010000000 ,강원도,춘천시,후평동 291-7,3권역,후평동,cj 대한통운,37.88916285,127.74768620,"쓰레기봉투를 사용하여 지정된 날짜, 시간에 수거위치에 배출","음식물 쓰레기봉투를 사용하여 지정된 날짜, 시간에 수거위치에 배출",재활용품별로 모아서 지정된 장소와 시간에 배출,일+월+화+수+목+금,일+월+화+수+목+금,일+월+화+수+목+금,18:00,23:00,18:00,23:00,18:00,23:00,토,2022-11-11,2022-12-15
4211010000000 ,강원도,춘천시,후평동 245-69,3권역,후평동,호동판넬 건너편,37.89025260,127.74222400,"쓰레기봉투를 사용하여 지정된 날짜, 시간에 수거위치에 배출","음식물 쓰레기봉투를 사용하여 지정된 날짜, 시간에 수거위치에 배출",재활용품별로 모아서 지정된 장소와 시간에 배출,일+월+화+수+목+금,일+월+화+수+목+금,일+월+화+수+목+금,18:00,23:00,18:00,23:00,18:00,23:00,토,2022-11-11,2022-12-15
4211010000000 ,강원도,춘천시,후평동 559-13,3권역,후평동,모두의밥상 건너편,37.88809858,127.74372630,"쓰레기봉투를 사용하여 지정된 날짜, 시간에 수거위치에 배출","음식물 쓰레기봉투를 사용하여 지정된 날짜, 시간에 수거위치에 배출",재활용품별로 모아서 지정된 장소와 시간에 배출,일+월+화+수+목+금,일+월+화+수+목+금,일+월+화+수+목+금,18:00,23:00,18:00,23:00,18:00,23:00,토,2022-11-11,2022-12-15
4211010000000 ,강원도,춘천시,효자동 754-21,2권역,효자동,나들목주당,37.87946699,127.74054900,"쓰레기봉투를 사용하여 지정된 날짜, 시간에 수거위치에 배출","음식물 쓰레기봉투를 사용하여 지정된 날짜, 시간에 수거위치에 배출",재활용품별로 모아서 지정된 장소와 시간에 배출,일+월+화+수+목+금,일+월+화+수+목+금,일+월+화+수+목+금,18:00,23:00,18:00,23:00,18:00,23:00,토,2022-09-03,2022-12-15
4211010000000 ,강원도,춘천시,후평동 341-15,3권역,후평동,태우 주유소 건너,37.88603552,127.74647770,"쓰레기봉투를 사용하여 지정된 날짜, 시간에 수거위치에 배출","음식물 쓰레기봉투를 사용하여 지정된 날짜, 시간에 수거위치에 배출",재활용품별로 모아서 지정된 장소와 시간에 배출,일+월+화+수+목+금,일+월+화+수+목+금,일+월+화+수+목+금,18:00,23:00,18:00,23:00,18:00,23:00,토,2022-11-11,2022-12-15
4211010000000 ,강원도,춘천시,후평동 724-18,3권역,후평동,동보렉카,37.88458809,127.74770330,"쓰레기봉투를 사용하여 지정된 날짜, 시간에 수거위치에 배출","음식물 쓰레기봉투를 사용하여 지정된 날짜, 시간에 수거위치에 배출",재활용품별로 모아서 지정된 장소와 시간에 배출,일+월+화+수+목+금,일+월+화+수+목+금,일+월+화+수+목+금,18:00,23:00,18:00,23:00,18:00,23:00,토,2022-11-11,2022-12-15
4211010000000 ,강원도,춘천시,후평동 791,3권역,후평동,최훈정형외과,37.88408510,127.74752330,"쓰레기봉투를 사용하여 지정된 날짜, 시간에 수거위치에 배출","음식물 쓰레기봉투를 사용하여 지정된 날짜, 시간에 수거위치에 배출",재활용품별로 모아서 지정된 장소와 시간에 배출,일+월+화+수+목+금,일+월+화+수+목+금,일+월+화+수+목+금,18:00,23:00,18:00,23:00,18:00,23:00,토,2022-11-11,2022-12-15
4211010000000 ,강원도,춘천시,후평동 839-14,3권역,후평동,부평길 26 주택 앞,37.87537476,127.75152610,"쓰레기봉투를 사용하여 지정된 날짜, 시간에 수거위치에 배출","음식물 쓰레기봉투를 사용하여 지정된 날짜, 시간에 수거위치에 배출",재활용품별로 모아서 지정된 장소와 시간에 배출,일+월+화+수+목+금,일+월+화+수+목+금,일+월+화+수+목+금,18:00,23:00,18:00,23:00,18:00,23:00,토,2022-11-11,2022-12-15
4211010000000 ,강원도,춘천시,후평동 841,3권역,후평동,세린교회 옆,37.87417787,127.75139300,"쓰레기봉투를 사용하여 지정된 날짜, 시간에 수거위치에 배출","음식물 쓰레기봉투를 사용하여 지정된 날짜, 시간에 수거위치에 배출",재활용품별로 모아서 지정된 장소와 시간에 배출,일+월+화+수+목+금,일+월+화+수+목+금,일+월+화+수+목+금,18:00,23:00,18:00,23:00,18:00,23:00,토,2022-11-11,2022-12-15
4211010000000 ,강원도,춘천시,후평동 832-12,3권역,후평동,gray sunset,37.87395298,127.75204560,"쓰레기봉투를 사용하여 지정된 날짜, 시간에 수거위치에 배출","음식물 쓰레기봉투를 사용하여 지정된 날짜, 시간에 수거위치에 배출",재활용품별로 모아서 지정된 장소와 시간에 배출,일+월+화+수+목+금,일+월+화+수+목+금,일+월+화+수+목+금,18:00,23:00,18:00,23:00,18:00,23:00,토,2022-11-11,2022-12-15
4211010000000 ,강원도,춘천시,후평동 841,3권역,후평동,인공폭포 건너편,37.87580503,127.75247500,"쓰레기봉투를 사용하여 지정된 날짜, 시간에 수거위치에 배출","음식물 쓰레기봉투를 사용하여 지정된 날짜, 시간에 수거위치에 배출",재활용품별로 모아서 지정된 장소와 시간에 배출,일+월+화+수+목+금,일+월+화+수+목+금,일+월+화+수+목+금,18:00,23:00,18:00,23:00,18:00,23:00,토,2022-11-11,2022-12-15
4211010000000 ,강원도,춘천시,후평동 841,3권역,후평동,점보비빔밥 옆편,37.87486756,127.75244590,"쓰레기봉투를 사용하여 지정된 날짜, 시간에 수거위치에 배출","음식물 쓰레기봉투를 사용하여 지정된 날짜, 시간에 수거위치에 배출",재활용품별로 모아서 지정된 장소와 시간에 배출,일+월+화+수+목+금,일+월+화+수+목+금,일+월+화+수+목+금,18:00,23:00,18:00,23:00,18:00,23:00,토,2022-11-11,2022-12-15
4211010000000 ,강원도,춘천시,퇴계동 369-5,5권역,퇴계동,성광카센터앞 ,37.86320706,127.73049360,"쓰레기봉투를 사용하여 지정된 날짜, 시간에 수거위치에 배출","음식물 쓰레기봉투를 사용하여 지정된 날짜, 시간에 수거위치에 배출",재활용품별로 모아서 지정된 장소와 시간에 배출,일+월+화+수+목+금,일+월+화+수+목+금,일+월+화+수+목+금,18:00,23:00,18:00,23:00,18:00,23:00,토,2022-11-09,2022-12-15
4211010000000 ,강원도,춘천시,후평동 867,3권역,후평동,cu후평대우점,37.87610123,127.75893960,"쓰레기봉투를 사용하여 지정된 날짜, 시간에 수거위치에 배출","음식물 쓰레기봉투를 사용하여 지정된 날짜, 시간에 수거위치에 배출",재활용품별로 모아서 지정된 장소와 시간에 배출,일+월+화+수+목+금,일+월+화+수+목+금,일+월+화+수+목+금,18:00,23:00,18:00,23:00,18:00,23:00,토,2022-11-11,2022-12-15
4211010000000 ,강원도,춘천시,후평동 772,3권역,후평동,후평지구대 앞,37.88276566,127.74839600,"쓰레기봉투를 사용하여 지정된 날짜, 시간에 수거위치에 배출","음식물 쓰레기봉투를 사용하여 지정된 날짜, 시간에 수거위치에 배출",재활용품별로 모아서 지정된 장소와 시간에 배출,일+월+화+수+목+금,일+월+화+수+목+금,일+월+화+수+목+금,18:00,23:00,18:00,23:00,18:00,23:00,토,2022-11-11,2022-12-15
4211010000000 ,강원도,춘천시,후평동 67-101,3권역,후평동,쭈헤어 건너,37.87873681,127.75145620,"쓰레기봉투를 사용하여 지정된 날짜, 시간에 수거위치에 배출","음식물 쓰레기봉투를 사용하여 지정된 날짜, 시간에 수거위치에 배출",재활용품별로 모아서 지정된 장소와 시간에 배출,일+월+화+수+목+금,일+월+화+수+목+금,일+월+화+수+목+금,18:00,23:00,18:00,23:00,18:00,23:00,토,2022-11-17,2022-12-15
4211010000000 ,강원도,춘천시,후평동 74-9,3권역,후평동,우리동그라미어린이집 뒤편,37.87970998,127.75178470,"쓰레기봉투를 사용하여 지정된 날짜, 시간에 수거위치에 배출","음식물 쓰레기봉투를 사용하여 지정된 날짜, 시간에 수거위치에 배출",재활용품별로 모아서 지정된 장소와 시간에 배출,일+월+화+수+목+금,일+월+화+수+목+금,일+월+화+수+목+금,18:00,23:00,18:00,23:00,18:00,23:00,토,2022-11-17,2022-12-15
4211010000000 ,강원도,춘천시,후평동 79-1,3권역,후평동,신전떡뽁기 옆,37.88051139,127.75101740,"쓰레기봉투를 사용하여 지정된 날짜, 시간에 수거위치에 배출","음식물 쓰레기봉투를 사용하여 지정된 날짜, 시간에 수거위치에 배출",재활용품별로 모아서 지정된 장소와 시간에 배출,일+월+화+수+목+금,일+월+화+수+목+금,일+월+화+수+목+금,18:00,23:00,18:00,23:00,18:00,23:00,토,2022-11-17,2022-12-15
4211010000000 ,강원도,춘천시,후평동 425-1,3권역,후평동,신도하이텍 건너,37.88196862,127.75019740,"쓰레기봉투를 사용하여 지정된 날짜, 시간에 수거위치에 배출","음식물 쓰레기봉투를 사용하여 지정된 날짜, 시간에 수거위치에 배출",재활용품별로 모아서 지정된 장소와 시간에 배출,일+월+화+수+목+금,일+월+화+수+목+금,일+월+화+수+목+금,18:00,23:00,18:00,23:00,18:00,23:00,토,2022-11-17,2022-12-15
4211010000000 ,강원도,춘천시,후평동 95-1,3권역,후평동,후평동 95-19,37.88321814,127.75181710,"쓰레기봉투를 사용하여 지정된 날짜, 시간에 수거위치에 배출","음식물 쓰레기봉투를 사용하여 지정된 날짜, 시간에 수거위치에 배출",재활용품별로 모아서 지정된 장소와 시간에 배출,일+월+화+수+목+금,일+월+화+수+목+금,일+월+화+수+목+금,18:00,23:00,18:00,23:00,18:00,23:00,토,2022-11-17,2022-12-15
4211010000000 ,강원도,춘천시,우두동 459-2,1권역,우두동,건축인테리어 디자인프로,37.90755358,127.73956170,"쓰레기봉투를 사용하여 지정된 날짜, 시간에 수거위치에 배출","음식물 쓰레기봉투를 사용하여 지정된 날짜, 시간에 수거위치에 배출",재활용품별로 모아서 지정된 장소와 시간에 배출,일+월+화+수+목+금,일+월+화+수+목+금,일+월+화+수+목+금,18:00,23:00,18:00,23:00,18:00,23:00,토,2022-09-22,2022-12-15
4211010000000 ,강원도,춘천시,후평동 809,3권역,후평동,프로미시,37.87451391,127.75614710,"쓰레기봉투를 사용하여 지정된 날짜, 시간에 수거위치에 배출","음식물 쓰레기봉투를 사용하여 지정된 날짜, 시간에 수거위치에 배출",재활용품별로 모아서 지정된 장소와 시간에 배출,일+월+화+수+목+금,일+월+화+수+목+금,일+월+화+수+목+금,18:00,23:00,18:00,23:00,18:00,23:00,토,2022-11-11,2022-12-15
4211010000000 ,강원도,춘천시,후평동 887,3권역,후평동,제이hair,37.87483949,127.75791830,"쓰레기봉투를 사용하여 지정된 날짜, 시간에 수거위치에 배출","음식물 쓰레기봉투를 사용하여 지정된 날짜, 시간에 수거위치에 배출",재활용품별로 모아서 지정된 장소와 시간에 배출,일+월+화+수+목+금,일+월+화+수+목+금,일+월+화+수+목+금,18:00,23:00,18:00,23:00,18:00,23:00,토,2022-11-11,2022-12-15
4211010000000 ,강원도,춘천시,후평동 868,3권역,후평동,유키의 머리공방 건너,37.87706977,127.75726790,"쓰레기봉투를 사용하여 지정된 날짜, 시간에 수거위치에 배출","음식물 쓰레기봉투를 사용하여 지정된 날짜, 시간에 수거위치에 배출",재활용품별로 모아서 지정된 장소와 시간에 배출,일+월+화+수+목+금,일+월+화+수+목+금,일+월+화+수+목+금,18:00,23:00,18:00,23:00,18:00,23:00,토,2022-11-11,2022-12-15
4211010000000 ,강원도,춘천시,후평동 876-10,3권역,후평동,워낭 옆,37.87551369,127.75800830,"쓰레기봉투를 사용하여 지정된 날짜, 시간에 수거위치에 배출","음식물 쓰레기봉투를 사용하여 지정된 날짜, 시간에 수거위치에 배출",재활용품별로 모아서 지정된 장소와 시간에 배출,일+월+화+수+목+금,일+월+화+수+목+금,일+월+화+수+목+금,18:00,23:00,18:00,23:00,18:00,23:00,토,2022-11-11,2022-12-15
4211010000000 ,강원도,춘천시,온의동 123-15,5권역,온의동,코코살롱 앞,37.86491367,127.71929180,"쓰레기봉투를 사용하여 지정된 날짜, 시간에 수거위치에 배출","음식물 쓰레기봉투를 사용하여 지정된 날짜, 시간에 수거위치에 배출",재활용품별로 모아서 지정된 장소와 시간에 배출,일+월+화+수+목+금,일+월+화+수+목+금,일+월+화+수+목+금,18:00,23:00,18:00,23:00,18:00,23:00,토,2022-08-24,2022-12-15
4211010000000 ,강원도,춘천시,온의동 35-4,5권역,온의동,소망축산 앞,37.86816693,127.71706090,"쓰레기봉투를 사용하여 지정된 날짜, 시간에 수거위치에 배출","음식물 쓰레기봉투를 사용하여 지정된 날짜, 시간에 수거위치에 배출",재활용품별로 모아서 지정된 장소와 시간에 배출,일+월+화+수+목+금,일+월+화+수+목+금,일+월+화+수+목+금,18:00,23:00,18:00,23:00,18:00,23:00,토,2022-08-24,2022-12-15
4211010000000 ,강원도,춘천시,온의동 149-5,5권역,온의동,새마을금고atm,37.86731551,127.71804890,"쓰레기봉투를 사용하여 지정된 날짜, 시간에 수거위치에 배출","음식물 쓰레기봉투를 사용하여 지정된 날짜, 시간에 수거위치에 배출",재활용품별로 모아서 지정된 장소와 시간에 배출,일+월+화+수+목+금,일+월+화+수+목+금,일+월+화+수+목+금,18:00,23:00,18:00,23:00,18:00,23:00,토,2022-08-24,2022-12-15
4211010000000 ,강원도,춘천시,효자동 356-11,4권역,효자동,공지로264번길 23,37.86717343,127.73585060,"쓰레기봉투를 사용하여 지정된 날짜, 시간에 수거위치에 배출","음식물 쓰레기봉투를 사용하여 지정된 날짜, 시간에 수거위치에 배출",재활용품별로 모아서 지정된 장소와 시간에 배출,일+월+화+수+목+금,일+월+화+수+목+금,일+월+화+수+목+금,18:00,23:00,18:00,23:00,18:00,23:00,토,2022-09-03,2022-12-15
4211010000000 ,강원도,춘천시,후평동 157-23,3권역,후평동,수풀이앤지 앞,37.89058973,127.75219960,"쓰레기봉투를 사용하여 지정된 날짜, 시간에 수거위치에 배출","음식물 쓰레기봉투를 사용하여 지정된 날짜, 시간에 수거위치에 배출",재활용품별로 모아서 지정된 장소와 시간에 배출,일+월+화+수+목+금,일+월+화+수+목+금,일+월+화+수+목+금,18:00,23:00,18:00,23:00,18:00,23:00,토,2022-11-17,2022-12-15
4211010000000 ,강원도,춘천시,후평동 157-25,3권역,후평동,케이에스미트 건너,37.88979701,127.75175120,"쓰레기봉투를 사용하여 지정된 날짜, 시간에 수거위치에 배출","음식물 쓰레기봉투를 사용하여 지정된 날짜, 시간에 수거위치에 배출",재활용품별로 모아서 지정된 장소와 시간에 배출,일+월+화+수+목+금,일+월+화+수+목+금,일+월+화+수+목+금,18:00,23:00,18:00,23:00,18:00,23:00,토,2022-11-17,2022-12-15
4211010000000 ,강원도,춘천시,후평동 245-50,3권역,후평동,가로등 032-08,37.88952927,127.74943260,"쓰레기봉투를 사용하여 지정된 날짜, 시간에 수거위치에 배출","음식물 쓰레기봉투를 사용하여 지정된 날짜, 시간에 수거위치에 배출",재활용품별로 모아서 지정된 장소와 시간에 배출,일+월+화+수+목+금,일+월+화+수+목+금,일+월+화+수+목+금,18:00,23:00,18:00,23:00,18:00,23:00,토,2022-11-17,2022-12-15
4211010000000 ,강원도,춘천시,후평동 209-10,3권역,후평동,뒷뜰밥집 뒤,37.89251660,127.74969620,"쓰레기봉투를 사용하여 지정된 날짜, 시간에 수거위치에 배출","음식물 쓰레기봉투를 사용하여 지정된 날짜, 시간에 수거위치에 배출",재활용품별로 모아서 지정된 장소와 시간에 배출,일+월+화+수+목+금,일+월+화+수+목+금,일+월+화+수+목+금,18:00,23:00,18:00,23:00,18:00,23:00,토,2022-11-17,2022-12-15
4211010000000 ,강원도,춘천시,온의동 151-24,5권역,온의동,만족족발 앞,37.86604699,127.71915890,"쓰레기봉투를 사용하여 지정된 날짜, 시간에 수거위치에 배출","음식물 쓰레기봉투를 사용하여 지정된 날짜, 시간에 수거위치에 배출",재활용품별로 모아서 지정된 장소와 시간에 배출,일+월+화+수+목+금,일+월+화+수+목+금,일+월+화+수+목+금,18:00,23:00,18:00,23:00,18:00,23:00,토,2022-08-24,2022-12-15
4211010000000 ,강원도,춘천시,온의동 52-13,5권역,온의동,더이스트 앞,37.86787489,127.71633580,"쓰레기봉투를 사용하여 지정된 날짜, 시간에 수거위치에 배출","음식물 쓰레기봉투를 사용하여 지정된 날짜, 시간에 수거위치에 배출",재활용품별로 모아서 지정된 장소와 시간에 배출,일+월+화+수+목+금,일+월+화+수+목+금,일+월+화+수+목+금,18:00,23:00,18:00,23:00,18:00,23:00,토,2022-08-24,2022-12-15
4211010000000 ,강원도,춘천시,온의동 589-8,5권역,온의동,다이소주차장,37.86638166,127.72094650,"쓰레기봉투를 사용하여 지정된 날짜, 시간에 수거위치에 배출","음식물 쓰레기봉투를 사용하여 지정된 날짜, 시간에 수거위치에 배출",재활용품별로 모아서 지정된 장소와 시간에 배출,일+월+화+수+목+금,일+월+화+수+목+금,일+월+화+수+목+금,18:00,23:00,18:00,23:00,18:00,23:00,토,2022-08-24,2022-12-15
4211010000000 ,강원도,춘천시,온의동 58-16,5권역,온의동,프랭크버거 앞,37.86828276,127.71604840,"쓰레기봉투를 사용하여 지정된 날짜, 시간에 수거위치에 배출","음식물 쓰레기봉투를 사용하여 지정된 날짜, 시간에 수거위치에 배출",재활용품별로 모아서 지정된 장소와 시간에 배출,일+월+화+수+목+금,일+월+화+수+목+금,일+월+화+수+목+금,18:00,23:00,18:00,23:00,18:00,23:00,토,2022-08-24,2022-12-15
4211010000000 ,강원도,춘천시,온의동 162-8,5권역,온의동,행복시장 옆,37.86646360,127.71950100,"쓰레기봉투를 사용하여 지정된 날짜, 시간에 수거위치에 배출","음식물 쓰레기봉투를 사용하여 지정된 날짜, 시간에 수거위치에 배출",재활용품별로 모아서 지정된 장소와 시간에 배출,일+월+화+수+목+금,일+월+화+수+목+금,일+월+화+수+목+금,18:00,23:00,18:00,23:00,18:00,23:00,토,2022-08-24,2022-12-15
4211010000000 ,강원도,춘천시,온의동 65-7,5권역,온의동,파리바게트 앞,37.86894910,127.71573040,"쓰레기봉투를 사용하여 지정된 날짜, 시간에 수거위치에 배출","음식물 쓰레기봉투를 사용하여 지정된 날짜, 시간에 수거위치에 배출",재활용품별로 모아서 지정된 장소와 시간에 배출,일+월+화+수+목+금,일+월+화+수+목+금,일+월+화+수+목+금,18:00,23:00,18:00,23:00,18:00,23:00,토,2022-08-24,2022-12-15
4211010000000 ,강원도,춘천시,온의동 583,5권역,온의동,온의빌딩,37.86758942,127.72107450,"쓰레기봉투를 사용하여 지정된 날짜, 시간에 수거위치에 배출","음식물 쓰레기봉투를 사용하여 지정된 날짜, 시간에 수거위치에 배출",재활용품별로 모아서 지정된 장소와 시간에 배출,일+월+화+수+목+금,일+월+화+수+목+금,일+월+화+수+목+금,18:00,23:00,18:00,23:00,18:00,23:00,토,2022-08-24,2022-12-15
4211010000000 ,강원도,춘천시,온의동 535,5권역,온의동,실로암교회 큰길,37.86089931,127.71809370,"쓰레기봉투를 사용하여 지정된 날짜, 시간에 수거위치에 배출","음식물 쓰레기봉투를 사용하여 지정된 날짜, 시간에 수거위치에 배출",재활용품별로 모아서 지정된 장소와 시간에 배출,일+월+화+수+목+금,일+월+화+수+목+금,일+월+화+수+목+금,18:00,23:00,18:00,23:00,18:00,23:00,토,2022-09-20,2022-12-15
4211010000000 ,강원도,춘천시,온의동 536-8,5권역,온의동,자유베이커리,37.85931358,127.71731540,"쓰레기봉투를 사용하여 지정된 날짜, 시간에 수거위치에 배출","음식물 쓰레기봉투를 사용하여 지정된 날짜, 시간에 수거위치에 배출",재활용품별로 모아서 지정된 장소와 시간에 배출,일+월+화+수+목+금,일+월+화+수+목+금,일+월+화+수+목+금,18:00,23:00,18:00,23:00,18:00,23:00,토,2022-09-20,2022-12-15
4211010000000 ,강원도,춘천시,온의동 535,5권역,온의동,실로암교회 옆길,37.86086650,127.71806230,"쓰레기봉투를 사용하여 지정된 날짜, 시간에 수거위치에 배출","음식물 쓰레기봉투를 사용하여 지정된 날짜, 시간에 수거위치에 배출",재활용품별로 모아서 지정된 장소와 시간에 배출,일+월+화+수+목+금,일+월+화+수+목+금,일+월+화+수+목+금,18:00,23:00,18:00,23:00,18:00,23:00,토,2022-11-09,2022-12-15
